hello
('127.0.0.1', 23)
udpInPort is ('127.0.0.1', 23)
('127.0.0.1', 23)
('127.0.0.1', 26)
udpInPort is ('127.0.0.1', 26)
('127.0.0.1', 26)
UDP In:    $GPGGA,042149,4905.2859,N,12332.1282,W,2,09,0.80,5,M,,,1,0304*10

Out:       $GPGGA,042149,4905.2859,N,12332.1282,W,2,09,0.80,5,M,,,1,0304*10

UDP In:    $SDDBS,,,0314.0,M,,*17

Out:       $SDDBS,,,0314.0,M,,*17

UDP In:    $GPGLL,4905.2859,N,12332.1282,W,042149,A*34

Out:       $GPGLL,4905.2859,N,12332.1282,W,042149,A*34

UDP In:    $GPRMC,042149,A,4905.2859,N,12332.1282,W,11.1,324,060315,17,E*6B

Out:       $GPRMC,042149,A,4905.2859,N,12332.1282,W,11.1,324,060315,17,E*6B

UDP In:    $GPVTG,324,T,307,M,11.1,N,20.5,K*49

Out:       $GPVTG,324,T,307,M,11.1,N,20.5,K*49

UDP In:    $GPZDA,042149,06,03,2015,07,00*46

Out:       $GPZDA,042149,06,03,2015,07,00*46

UDP In:    $GPGGA,042150,4905.2884,N,12332.1309,W,2,09,0.80,5,M,,,1,0304*1A

Out:       $GPGGA,042150,4905.2884,N,12332.1309,W,2,09,0.80,5,M,,,1,0304*1A

UDP In:    $GPGLL,4905.2884,N,12332.1309,W,042150,A*3E

Out:       $GPGLL,4905.2884,N,12332.1309,W,042150,A*3E

UDP In:    $GPRMC,042150,A,4905.2884,N,12332.1309,W,11.1,324,060315,17,E*61

Out:       $GPRMC,042150,A,4905.2884,N,12332.1309,W,11.1,324,060315,17,E*61

UDP In:    $GPVTG,324,T,307,M,11.1,N,20.5,K*49

Out:       $GPVTG,324,T,307,M,11.1,N,20.5,K*49

UDP In:    $GPZDA,042150,06,03,2015,07,00*4E

Out:       $GPZDA,042150,06,03,2015,07,00*4E

UDP In:    $GPGGA,042151,4905.2909,N,12332.1336,W,2,09,0.80,5,M,,,1,0304*13

Out:       $GPGGA,042151,4905.2909,N,12332.1336,W,2,09,0.80,5,M,,,1,0304*13

UDP In:    $GPGLL,4905.2909,N,12332.1336,W,042151,A*37

Out:       $GPGLL,4905.2909,N,12332.1336,W,042151,A*37

UDP In:    $GPRMC,042151,A,4905.2909,N,12332.1336,W,11.1,324,060315,17,E*68

Out:       $GPRMC,042151,A,4905.2909,N,12332.1336,W,11.1,324,060315,17,E*68

UDP In:    $GPVTG,324,T,307,M,11.1,N,20.5,K*49

Out:       $GPVTG,324,T,307,M,11.1,N,20.5,K*49

UDP In:    $GPZDA,042151,06,03,2015,07,00*4F

Out:       $GPZDA,042151,06,03,2015,07,00*4F

UDP In:    $GPGGA,042152,4905.2934,N,12332.1363,W,2,09,0.80,5,M,,,2,0304*1D

Out:       $GPGGA,042152,4905.2934,N,12332.1363,W,2,09,0.80,5,M,,,2,0304*1D

UDP In:    $GPGLL,4905.2934,N,12332.1363,W,042152,A*3A

Out:       $GPGLL,4905.2934,N,12332.1363,W,042152,A*3A

UDP In:    $GPRMC,042152,A,4905.2934,N,12332.1363,W,11.1,324,060315,17,E*65

Out:       $GPRMC,042152,A,4905.2934,N,12332.1363,W,11.1,324,060315,17,E*65

UDP In:    $GPVTG,324,T,307,M,11.1,N,20.5,K*49

Out:       $GPVTG,324,T,307,M,11.1,N,20.5,K*49

UDP In:    $GPZDA,042146,06,03,2015,07,00*49

Out:       $GPZDA,042146,06,03,2015,07,00*49

UDP In:    $GPGGA,042147,4905.2809,N,12332.1227,W,2,09,0.80,5,M,,,1,0304*14

Out:       $GPGGA,042147,4905.2809,N,12332.1227,W,2,09,0.80,5,M,,,1,0304*14

UDP In:    $GPGLL,4905.2809,N,12332.1227,W,042147,A*30

Out:       $GPGLL,4905.2809,N,12332.1227,W,042147,A*30

UDP In:    $GPRMC,042147,A,4905.2809,N,12332.1227,W,11.1,324,060315,17,E*6F

Out:       $GPRMC,042147,A,4905.2809,N,12332.1227,W,11.1,324,060315,17,E*6F

UDP In:    $GPVTG,324,T,307,M,11.1,N,20.5,K*49

Out:       $GPVTG,324,T,307,M,11.1,N,20.5,K*49

UDP In:    $GPZDA,042147,06,03,2015,07,00*48

Out:       $GPZDA,042147,06,03,2015,07,00*48

UDP In:    $GPGGA,042148,4905.2834,N,12332.1254,W,2,09,0.80,5,M,,,1,0304*11

Out:       $GPGGA,042148,4905.2834,N,12332.1254,W,2,09,0.80,5,M,,,1,0304*11

UDP In:    $GPGLL,4905.2834,N,12332.1254,W,042148,A*35

Out:       $GPGLL,4905.2834,N,12332.1254,W,042148,A*35

UDP In:    $GPRMC,042148,A,4905.2834,N,12332.1254,W,11.1,324,060315,17,E*6A

Out:       $GPRMC,042148,A,4905.2834,N,12332.1254,W,11.1,324,060315,17,E*6A

UDP In:    $GPVTG,324,T,307,M,11.1,N,20.5,K*49

Out:       $GPVTG,324,T,307,M,11.1,N,20.5,K*49

UDP In:    $GPZDA,042148,06,03,2015,07,00*47

Out:       $GPZDA,042148,06,03,2015,07,00*47

UDP In:    $GPGGA,042149,4905.2859,N,12332.1282,W,2,09,0.80,5,M,,,1,0304*10

Out:       $GPGGA,042149,4905.2859,N,12332.1282,W,2,09,0.80,5,M,,,1,0304*10

UDP In:    $GPGLL,4905.2859,N,12332.1282,W,042149,A*34

Out:       $GPGLL,4905.2859,N,12332.1282,W,042149,A*34

UDP In:    $GPRMC,042149,A,4905.2859,N,12332.1282,W,11.1,324,060315,17,E*6B

Out:       $GPRMC,042149,A,4905.2859,N,12332.1282,W,11.1,324,060315,17,E*6B

UDP In:    $GPVTG,324,T,307,M,11.1,N,20.5,K*49

Out:       $GPVTG,324,T,307,M,11.1,N,20.5,K*49

UDP In:    $GPZDA,042149,06,03,2015,07,00*46

Out:       $GPZDA,042149,06,03,2015,07,00*46

UDP In:    $GPGGA,042150,4905.2884,N,12332.1309,W,2,09,0.80,5,M,,,1,0304*1A

Out:       $GPGGA,042150,4905.2884,N,12332.1309,W,2,09,0.80,5,M,,,1,0304*1A

UDP In:    $GPGLL,4905.2884,N,12332.1309,W,042150,A*3E

Out:       $GPGLL,4905.2884,N,12332.1309,W,042150,A*3E

UDP In:    $GPRMC,042150,A,4905.2884,N,12332.1309,W,11.1,324,060315,17,E*61

Out:       $GPRMC,042150,A,4905.2884,N,12332.1309,W,11.1,324,060315,17,E*61

UDP In:    $GPVTG,324,T,307,M,11.1,N,20.5,K*49

Out:       $GPVTG,324,T,307,M,11.1,N,20.5,K*49

UDP In:    $GPZDA,042150,06,03,2015,07,00*4E

Out:       $GPZDA,042150,06,03,2015,07,00*4E

UDP In:    $GPGGA,042151,4905.2909,N,12332.1336,W,2,09,0.80,5,M,,,1,0304*13

Out:       $GPGGA,042151,4905.2909,N,12332.1336,W,2,09,0.80,5,M,,,1,0304*13

UDP In:    $GPGLL,4905.2909,N,12332.1336,W,042151,A*37

Out:       $GPGLL,4905.2909,N,12332.1336,W,042151,A*37

UDP In:    $GPRMC,042151,A,4905.2909,N,12332.1336,W,11.1,324,060315,17,E*68

Out:       $GPRMC,042151,A,4905.2909,N,12332.1336,W,11.1,324,060315,17,E*68

UDP In:    $GPVTG,324,T,307,M,11.1,N,20.5,K*49

Out:       $GPVTG,324,T,307,M,11.1,N,20.5,K*49

UDP In:    $GPZDA,042151,06,03,2015,07,00*4F

Out:       $GPZDA,042151,06,03,2015,07,00*4F

UDP In:    $GPGGA,042152,4905.2934,N,12332.1363,W,2,09,0.80,5,M,,,2,0304*1D

Out:       $GPGGA,042152,4905.2934,N,12332.1363,W,2,09,0.80,5,M,,,2,0304*1D

UDP In:    $GPGLL,4905.2934,N,12332.1363,W,042152,A*3A

Out:       $GPGLL,4905.2934,N,12332.1363,W,042152,A*3A

UDP In:    $GPRMC,042152,A,4905.2934,N,12332.1363,W,11.1,324,060315,17,E*65

Out:       $GPRMC,042152,A,4905.2934,N,12332.1363,W,11.1,324,060315,17,E*65

UDP In:    $GPVTG,324,T,307,M,11.1,N,20.5,K*49

Out:       $GPVTG,324,T,307,M,11.1,N,20.5,K*49

UDP In:    $GPZDA,042146,06,03,2015,07,00*49

Out:       $GPZDA,042146,06,03,2015,07,00*49

UDP In:    $GPGGA,042147,4905.2809,N,12332.1227,W,2,09,0.80,5,M,,,1,0304*14

Out:       $GPGGA,042147,4905.2809,N,12332.1227,W,2,09,0.80,5,M,,,1,0304*14

UDP In:    $GPGLL,4905.2809,N,12332.1227,W,042147,A*30

Out:       $GPGLL,4905.2809,N,12332.1227,W,042147,A*30

UDP In:    $GPRMC,042147,A,4905.2809,N,12332.1227,W,11.1,324,060315,17,E*6F

Out:       $GPRMC,042147,A,4905.2809,N,12332.1227,W,11.1,324,060315,17,E*6F

UDP In:    $GPVTG,324,T,307,M,11.1,N,20.5,K*49

Out:       $GPVTG,324,T,307,M,11.1,N,20.5,K*49

UDP In:    $GPZDA,042147,06,03,2015,07,00*48

Out:       $GPZDA,042147,06,03,2015,07,00*48

UDP In:    $GPGGA,042148,4905.2834,N,12332.1254,W,2,09,0.80,5,M,,,1,0304*11

Out:       $GPGGA,042148,4905.2834,N,12332.1254,W,2,09,0.80,5,M,,,1,0304*11

UDP In:    $GPGLL,4905.2834,N,12332.1254,W,042148,A*35

Out:       $GPGLL,4905.2834,N,12332.1254,W,042148,A*35

UDP In:    $GPRMC,042148,A,4905.2834,N,12332.1254,W,11.1,324,060315,17,E*6A

Out:       $GPRMC,042148,A,4905.2834,N,12332.1254,W,11.1,324,060315,17,E*6A

UDP In:    $GPVTG,324,T,307,M,11.1,N,20.5,K*49

Out:       $GPVTG,324,T,307,M,11.1,N,20.5,K*49

UDP In:    $GPZDA,042148,06,03,2015,07,00*47

Out:       $GPZDA,042148,06,03,2015,07,00*47

UDP In:    $GPGGA,042149,4905.2859,N,12332.1282,W,2,09,0.80,5,M,,,1,0304*10

Out:       $GPGGA,042149,4905.2859,N,12332.1282,W,2,09,0.80,5,M,,,1,0304*10

UDP In:    $GPGLL,4905.2859,N,12332.1282,W,042149,A*34

Out:       $GPGLL,4905.2859,N,12332.1282,W,042149,A*34

UDP In:    $GPRMC,042149,A,4905.2859,N,12332.1282,W,11.1,324,060315,17,E*6B

Out:       $GPRMC,042149,A,4905.2859,N,12332.1282,W,11.1,324,060315,17,E*6B

UDP In:    $GPVTG,324,T,307,M,11.1,N,20.5,K*49

Out:       $GPVTG,324,T,307,M,11.1,N,20.5,K*49

UDP In:    $GPZDA,042149,06,03,2015,07,00*46

Out:       $GPZDA,042149,06,03,2015,07,00*46

UDP In:    $GPGGA,042150,4905.2884,N,12332.1309,W,2,09,0.80,5,M,,,1,0304*1A

Out:       $GPGGA,042150,4905.2884,N,12332.1309,W,2,09,0.80,5,M,,,1,0304*1A

UDP In:    $GPGLL,4905.2884,N,12332.1309,W,042150,A*3E

Out:       $GPGLL,4905.2884,N,12332.1309,W,042150,A*3E

UDP In:    $GPRMC,042150,A,4905.2884,N,12332.1309,W,11.1,324,060315,17,E*61

Out:       $GPRMC,042150,A,4905.2884,N,12332.1309,W,11.1,324,060315,17,E*61

UDP In:    $GPVTG,324,T,307,M,11.1,N,20.5,K*49

Out:       $GPVTG,324,T,307,M,11.1,N,20.5,K*49

UDP In:    $GPZDA,042150,06,03,2015,07,00*4E

Out:       $GPZDA,042150,06,03,2015,07,00*4E

UDP In:    $GPGGA,042151,4905.2909,N,12332.1336,W,2,09,0.80,5,M,,,1,0304*13

Out:       $GPGGA,042151,4905.2909,N,12332.1336,W,2,09,0.80,5,M,,,1,0304*13

UDP In:    $GPGLL,4905.2909,N,12332.1336,W,042151,A*37

Out:       $GPGLL,4905.2909,N,12332.1336,W,042151,A*37

UDP In:    $GPRMC,042151,A,4905.2909,N,12332.1336,W,11.1,324,060315,17,E*68

Out:       $GPRMC,042151,A,4905.2909,N,12332.1336,W,11.1,324,060315,17,E*68

UDP In:    $GPVTG,324,T,307,M,11.1,N,20.5,K*49

Out:       $GPVTG,324,T,307,M,11.1,N,20.5,K*49

UDP In:    $GPZDA,042151,06,03,2015,07,00*4F

Out:       $GPZDA,042151,06,03,2015,07,00*4F

UDP In:    $GPGGA,042152,4905.2934,N,12332.1363,W,2,09,0.80,5,M,,,2,0304*1D

Out:       $GPGGA,042152,4905.2934,N,12332.1363,W,2,09,0.80,5,M,,,2,0304*1D

UDP In:    $GPGLL,4905.2934,N,12332.1363,W,042152,A*3A

Out:       $GPGLL,4905.2934,N,12332.1363,W,042152,A*3A

UDP In:    $GPRMC,042152,A,4905.2934,N,12332.1363,W,11.1,324,060315,17,E*65

Out:       $GPRMC,042152,A,4905.2934,N,12332.1363,W,11.1,324,060315,17,E*65

UDP In:    $GPVTG,324,T,307,M,11.1,N,20.5,K*49

Out:       $GPVTG,324,T,307,M,11.1,N,20.5,K*49

UDP In:    $GPZDA,042146,06,03,2015,07,00*49

Out:       $GPZDA,042146,06,03,2015,07,00*49

UDP In:    $SDDBS,,,0316.4,M,,*11

Out:       $SDDBS,,,0316.4,M,,*11

UDP In:    $GPGGA,042147,4905.2809,N,12332.1227,W,2,09,0.80,5,M,,,1,0304*14

Out:       $GPGGA,042147,4905.2809,N,12332.1227,W,2,09,0.80,5,M,,,1,0304*14

UDP In:    $GPGLL,4905.2809,N,12332.1227,W,042147,A*30

Out:       $GPGLL,4905.2809,N,12332.1227,W,042147,A*30

UDP In:    $GPRMC,042147,A,4905.2809,N,12332.1227,W,11.1,324,060315,17,E*6F

Out:       $GPRMC,042147,A,4905.2809,N,12332.1227,W,11.1,324,060315,17,E*6F

UDP In:    $GPVTG,324,T,307,M,11.1,N,20.5,K*49

Out:       $GPVTG,324,T,307,M,11.1,N,20.5,K*49

UDP In:    $GPZDA,042147,06,03,2015,07,00*48

Out:       $GPZDA,042147,06,03,2015,07,00*48

UDP In:    $GPGGA,042148,4905.2834,N,12332.1254,W,2,09,0.80,5,M,,,1,0304*11

Out:       $GPGGA,042148,4905.2834,N,12332.1254,W,2,09,0.80,5,M,,,1,0304*11

UDP In:    $GPGLL,4905.2834,N,12332.1254,W,042148,A*35

Out:       $GPGLL,4905.2834,N,12332.1254,W,042148,A*35

UDP In:    $GPRMC,042148,A,4905.2834,N,12332.1254,W,11.1,324,060315,17,E*6A

Out:       $GPRMC,042148,A,4905.2834,N,12332.1254,W,11.1,324,060315,17,E*6A

UDP In:    $GPVTG,324,T,307,M,11.1,N,20.5,K*49

Out:       $GPVTG,324,T,307,M,11.1,N,20.5,K*49

UDP In:    $GPZDA,042148,06,03,2015,07,00*47

Out:       $GPZDA,042148,06,03,2015,07,00*47

UDP In:    $GPGGA,042149,4905.2859,N,12332.1282,W,2,09,0.80,5,M,,,1,0304*10

Out:       $GPGGA,042149,4905.2859,N,12332.1282,W,2,09,0.80,5,M,,,1,0304*10

UDP In:    $GPGLL,4905.2859,N,12332.1282,W,042149,A*34

Out:       $GPGLL,4905.2859,N,12332.1282,W,042149,A*34

UDP In:    $GPRMC,042149,A,4905.2859,N,12332.1282,W,11.1,324,060315,17,E*6B

Out:       $GPRMC,042149,A,4905.2859,N,12332.1282,W,11.1,324,060315,17,E*6B

UDP In:    $GPVTG,324,T,307,M,11.1,N,20.5,K*49

Out:       $GPVTG,324,T,307,M,11.1,N,20.5,K*49

UDP In:    $GPZDA,042149,06,03,2015,07,00*46

Out:       $GPZDA,042149,06,03,2015,07,00*46

UDP In:    $GPGGA,042150,4905.2884,N,12332.1309,W,2,09,0.80,5,M,,,1,0304*1A

Out:       $GPGGA,042150,4905.2884,N,12332.1309,W,2,09,0.80,5,M,,,1,0304*1A

UDP In:    $GPGLL,4905.2884,N,12332.1309,W,042150,A*3E

Out:       $GPGLL,4905.2884,N,12332.1309,W,042150,A*3E

UDP In:    $GPRMC,042150,A,4905.2884,N,12332.1309,W,11.1,324,060315,17,E*61

Out:       $GPRMC,042150,A,4905.2884,N,12332.1309,W,11.1,324,060315,17,E*61

UDP In:    $GPVTG,324,T,307,M,11.1,N,20.5,K*49

Out:       $GPVTG,324,T,307,M,11.1,N,20.5,K*49

UDP In:    $GPZDA,042150,06,03,2015,07,00*4E

Out:       $GPZDA,042150,06,03,2015,07,00*4E

UDP In:    $GPGGA,042151,4905.2909,N,12332.1336,W,2,09,0.80,5,M,,,1,0304*13

Out:       $GPGGA,042151,4905.2909,N,12332.1336,W,2,09,0.80,5,M,,,1,0304*13

UDP In:    $GPGLL,4905.2909,N,12332.1336,W,042151,A*37

Out:       $GPGLL,4905.2909,N,12332.1336,W,042151,A*37

UDP In:    $GPRMC,042151,A,4905.2909,N,12332.1336,W,11.1,324,060315,17,E*68

Out:       $GPRMC,042151,A,4905.2909,N,12332.1336,W,11.1,324,060315,17,E*68

UDP In:    $GPVTG,324,T,307,M,11.1,N,20.5,K*49

Out:       $GPVTG,324,T,307,M,11.1,N,20.5,K*49

UDP In:    $GPZDA,042151,06,03,2015,07,00*4F

Out:       $GPZDA,042151,06,03,2015,07,00*4F

UDP In:    $GPGGA,042152,4905.2934,N,12332.1363,W,2,09,0.80,5,M,,,2,0304*1D

Out:       $GPGGA,042152,4905.2934,N,12332.1363,W,2,09,0.80,5,M,,,2,0304*1D

UDP In:    $GPGLL,4905.2934,N,12332.1363,W,042152,A*3A

Out:       $GPGLL,4905.2934,N,12332.1363,W,042152,A*3A

UDP In:    $GPRMC,042152,A,4905.2934,N,12332.1363,W,11.1,324,060315,17,E*65

Out:       $GPRMC,042152,A,4905.2934,N,12332.1363,W,11.1,324,060315,17,E*65

UDP In:    $GPVTG,324,T,307,M,11.1,N,20.5,K*49

Out:       $GPVTG,324,T,307,M,11.1,N,20.5,K*49

UDP In:    $GPZDA,042146,06,03,2015,07,00*49

Out:       $GPZDA,042146,06,03,2015,07,00*49

UDP In:    $GPGGA,042147,4905.2809,N,12332.1227,W,2,09,0.80,5,M,,,1,0304*14

Out:       $GPGGA,042147,4905.2809,N,12332.1227,W,2,09,0.80,5,M,,,1,0304*14

UDP In:    $GPGLL,4905.2809,N,12332.1227,W,042147,A*30

Out:       $GPGLL,4905.2809,N,12332.1227,W,042147,A*30

UDP In:    $GPRMC,042147,A,4905.2809,N,12332.1227,W,11.1,324,060315,17,E*6F

Out:       $GPRMC,042147,A,4905.2809,N,12332.1227,W,11.1,324,060315,17,E*6F

UDP In:    $GPVTG,324,T,307,M,11.1,N,20.5,K*49

Out:       $GPVTG,324,T,307,M,11.1,N,20.5,K*49

UDP In:    $GPZDA,042147,06,03,2015,07,00*48

Out:       $GPZDA,042147,06,03,2015,07,00*48

UDP In:    $GPGGA,042148,4905.2834,N,12332.1254,W,2,09,0.80,5,M,,,1,0304*11

Out:       $GPGGA,042148,4905.2834,N,12332.1254,W,2,09,0.80,5,M,,,1,0304*11

UDP In:    $GPGLL,4905.2834,N,12332.1254,W,042148,A*35

Out:       $GPGLL,4905.2834,N,12332.1254,W,042148,A*35

UDP In:    $GPRMC,042148,A,4905.2834,N,12332.1254,W,11.1,324,060315,17,E*6A

Out:       $GPRMC,042148,A,4905.2834,N,12332.1254,W,11.1,324,060315,17,E*6A

UDP In:    $GPVTG,324,T,307,M,11.1,N,20.5,K*49

Out:       $GPVTG,324,T,307,M,11.1,N,20.5,K*49

UDP In:    $GPZDA,042148,06,03,2015,07,00*47

Out:       $GPZDA,042148,06,03,2015,07,00*47

UDP In:    $GPGGA,042149,4905.2859,N,12332.1282,W,2,09,0.80,5,M,,,1,0304*10

Out:       $GPGGA,042149,4905.2859,N,12332.1282,W,2,09,0.80,5,M,,,1,0304*10

UDP In:    $GPGLL,4905.2859,N,12332.1282,W,042149,A*34

Out:       $GPGLL,4905.2859,N,12332.1282,W,042149,A*34

UDP In:    $GPRMC,042149,A,4905.2859,N,12332.1282,W,11.1,324,060315,17,E*6B

Out:       $GPRMC,042149,A,4905.2859,N,12332.1282,W,11.1,324,060315,17,E*6B

UDP In:    $GPVTG,324,T,307,M,11.1,N,20.5,K*49

Out:       $GPVTG,324,T,307,M,11.1,N,20.5,K*49

UDP In:    $GPZDA,042149,06,03,2015,07,00*46

Out:       $GPZDA,042149,06,03,2015,07,00*46

UDP In:    $GPGGA,042150,4905.2884,N,12332.1309,W,2,09,0.80,5,M,,,1,0304*1A

Out:       $GPGGA,042150,4905.2884,N,12332.1309,W,2,09,0.80,5,M,,,1,0304*1A

UDP In:    $GPGLL,4905.2884,N,12332.1309,W,042150,A*3E

Out:       $GPGLL,4905.2884,N,12332.1309,W,042150,A*3E

UDP In:    $GPRMC,042150,A,4905.2884,N,12332.1309,W,11.1,324,060315,17,E*61

Out:       $GPRMC,042150,A,4905.2884,N,12332.1309,W,11.1,324,060315,17,E*61

UDP In:    $GPVTG,324,T,307,M,11.1,N,20.5,K*49

Out:       $GPVTG,324,T,307,M,11.1,N,20.5,K*49

UDP In:    $GPZDA,042150,06,03,2015,07,00*4E

Out:       $GPZDA,042150,06,03,2015,07,00*4E

UDP In:    $GPGGA,042151,4905.2909,N,12332.1336,W,2,09,0.80,5,M,,,1,0304*13

Out:       $GPGGA,042151,4905.2909,N,12332.1336,W,2,09,0.80,5,M,,,1,0304*13

UDP In:    $GPGLL,4905.2909,N,12332.1336,W,042151,A*37

Out:       $GPGLL,4905.2909,N,12332.1336,W,042151,A*37

UDP In:    $GPRMC,042151,A,4905.2909,N,12332.1336,W,11.1,324,060315,17,E*68

Out:       $GPRMC,042151,A,4905.2909,N,12332.1336,W,11.1,324,060315,17,E*68

UDP In:    $GPVTG,324,T,307,M,11.1,N,20.5,K*49

Out:       $GPVTG,324,T,307,M,11.1,N,20.5,K*49

UDP In:    $GPZDA,042151,06,03,2015,07,00*4F

Out:       $GPZDA,042151,06,03,2015,07,00*4F

UDP In:    $GPGGA,042152,4905.2934,N,12332.1363,W,2,09,0.80,5,M,,,2,0304*1D

Out:       $GPGGA,042152,4905.2934,N,12332.1363,W,2,09,0.80,5,M,,,2,0304*1D

UDP In:    $GPGLL,4905.2934,N,12332.1363,W,042152,A*3A

Out:       $GPGLL,4905.2934,N,12332.1363,W,042152,A*3A

UDP In:    $GPRMC,042152,A,4905.2934,N,12332.1363,W,11.1,324,060315,17,E*65

Out:       $GPRMC,042152,A,4905.2934,N,12332.1363,W,11.1,324,060315,17,E*65

UDP In:    $GPVTG,324,T,307,M,11.1,N,20.5,K*49

Out:       $GPVTG,324,T,307,M,11.1,N,20.5,K*49

UDP In:    $GPZDA,042146,06,03,2015,07,00*49

Out:       $GPZDA,042146,06,03,2015,07,00*49

UDP In:    $GPGGA,042147,4905.2809,N,12332.1227,W,2,09,0.80,5,M,,,1,0304*14

Out:       $GPGGA,042147,4905.2809,N,12332.1227,W,2,09,0.80,5,M,,,1,0304*14

UDP In:    $GPGLL,4905.2809,N,12332.1227,W,042147,A*30

Out:       $GPGLL,4905.2809,N,12332.1227,W,042147,A*30

UDP In:    $GPRMC,042147,A,4905.2809,N,12332.1227,W,11.1,324,060315,17,E*6F

Out:       $GPRMC,042147,A,4905.2809,N,12332.1227,W,11.1,324,060315,17,E*6F

UDP In:    $GPVTG,324,T,307,M,11.1,N,20.5,K*49

Out:       $GPVTG,324,T,307,M,11.1,N,20.5,K*49

UDP In:    $GPZDA,042147,06,03,2015,07,00*48

Out:       $GPZDA,042147,06,03,2015,07,00*48

UDP In:    $GPGGA,042148,4905.2834,N,12332.1254,W,2,09,0.80,5,M,,,1,0304*11

Out:       $GPGGA,042148,4905.2834,N,12332.1254,W,2,09,0.80,5,M,,,1,0304*11

UDP In:    $GPGLL,4905.2834,N,12332.1254,W,042148,A*35

Out:       $GPGLL,4905.2834,N,12332.1254,W,042148,A*35

UDP In:    $GPRMC,042148,A,4905.2834,N,12332.1254,W,11.1,324,060315,17,E*6A

Out:       $GPRMC,042148,A,4905.2834,N,12332.1254,W,11.1,324,060315,17,E*6A

UDP In:    $GPVTG,324,T,307,M,11.1,N,20.5,K*49

Out:       $GPVTG,324,T,307,M,11.1,N,20.5,K*49

UDP In:    $GPZDA,042148,06,03,2015,07,00*47

Out:       $GPZDA,042148,06,03,2015,07,00*47

UDP In:    $GPGGA,042149,4905.2859,N,12332.1282,W,2,09,0.80,5,M,,,1,0304*10

Out:       $GPGGA,042149,4905.2859,N,12332.1282,W,2,09,0.80,5,M,,,1,0304*10

UDP In:    $GPGLL,4905.2859,N,12332.1282,W,042149,A*34

Out:       $GPGLL,4905.2859,N,12332.1282,W,042149,A*34

UDP In:    $GPRMC,042149,A,4905.2859,N,12332.1282,W,11.1,324,060315,17,E*6B

Out:       $GPRMC,042149,A,4905.2859,N,12332.1282,W,11.1,324,060315,17,E*6B

UDP In:    $GPVTG,324,T,307,M,11.1,N,20.5,K*49

Out:       $GPVTG,324,T,307,M,11.1,N,20.5,K*49

UDP In:    $GPZDA,042149,06,03,2015,07,00*46

Out:       $GPZDA,042149,06,03,2015,07,00*46

UDP In:    $GPGGA,042150,4905.2884,N,12332.1309,W,2,09,0.80,5,M,,,1,0304*1A

Out:       $GPGGA,042150,4905.2884,N,12332.1309,W,2,09,0.80,5,M,,,1,0304*1A

UDP In:    $GPGLL,4905.2884,N,12332.1309,W,042150,A*3E

Out:       $GPGLL,4905.2884,N,12332.1309,W,042150,A*3E

UDP In:    $GPRMC,042150,A,4905.2884,N,12332.1309,W,11.1,324,060315,17,E*61

Out:       $GPRMC,042150,A,4905.2884,N,12332.1309,W,11.1,324,060315,17,E*61

UDP In:    $GPVTG,324,T,307,M,11.1,N,20.5,K*49

Out:       $GPVTG,324,T,307,M,11.1,N,20.5,K*49

UDP In:    $GPZDA,042150,06,03,2015,07,00*4E

Out:       $GPZDA,042150,06,03,2015,07,00*4E

UDP In:    $GPGGA,042151,4905.2909,N,12332.1336,W,2,09,0.80,5,M,,,1,0304*13

Out:       $GPGGA,042151,4905.2909,N,12332.1336,W,2,09,0.80,5,M,,,1,0304*13

UDP In:    $GPGLL,4905.2909,N,12332.1336,W,042151,A*37

Out:       $GPGLL,4905.2909,N,12332.1336,W,042151,A*37

UDP In:    $SDDBS,,,0314.4,M,,*13

Out:       $SDDBS,,,0314.4,M,,*13

UDP In:    $GPRMC,042151,A,4905.2909,N,12332.1336,W,11.1,324,060315,17,E*68

Out:       $GPRMC,042151,A,4905.2909,N,12332.1336,W,11.1,324,060315,17,E*68

UDP In:    $GPVTG,324,T,307,M,11.1,N,20.5,K*49

Out:       $GPVTG,324,T,307,M,11.1,N,20.5,K*49

UDP In:    $GPZDA,042151,06,03,2015,07,00*4F

Out:       $GPZDA,042151,06,03,2015,07,00*4F

UDP In:    $GPGGA,042152,4905.2934,N,12332.1363,W,2,09,0.80,5,M,,,2,0304*1D

Out:       $GPGGA,042152,4905.2934,N,12332.1363,W,2,09,0.80,5,M,,,2,0304*1D

UDP In:    $GPGLL,4905.2934,N,12332.1363,W,042152,A*3A

Out:       $GPGLL,4905.2934,N,12332.1363,W,042152,A*3A

UDP In:    $GPRMC,042152,A,4905.2934,N,12332.1363,W,11.1,324,060315,17,E*65

Out:       $GPRMC,042152,A,4905.2934,N,12332.1363,W,11.1,324,060315,17,E*65

UDP In:    $GPVTG,324,T,307,M,11.1,N,20.5,K*49

Out:       $GPVTG,324,T,307,M,11.1,N,20.5,K*49

UDP In:    $GPZDA,042146,06,03,2015,07,00*49

Out:       $GPZDA,042146,06,03,2015,07,00*49

UDP In:    $GPGGA,042147,4905.2809,N,12332.1227,W,2,09,0.80,5,M,,,1,0304*14

Out:       $GPGGA,042147,4905.2809,N,12332.1227,W,2,09,0.80,5,M,,,1,0304*14

UDP In:    $GPGLL,4905.2809,N,12332.1227,W,042147,A*30

Out:       $GPGLL,4905.2809,N,12332.1227,W,042147,A*30

UDP In:    $GPRMC,042147,A,4905.2809,N,12332.1227,W,11.1,324,060315,17,E*6F

Out:       $GPRMC,042147,A,4905.2809,N,12332.1227,W,11.1,324,060315,17,E*6F

UDP In:    $GPVTG,324,T,307,M,11.1,N,20.5,K*49

Out:       $GPVTG,324,T,307,M,11.1,N,20.5,K*49

UDP In:    $GPZDA,042147,06,03,2015,07,00*48

Out:       $GPZDA,042147,06,03,2015,07,00*48

UDP In:    $GPGGA,042148,4905.2834,N,12332.1254,W,2,09,0.80,5,M,,,1,0304*11

Out:       $GPGGA,042148,4905.2834,N,12332.1254,W,2,09,0.80,5,M,,,1,0304*11

UDP In:    $GPGLL,4905.2834,N,12332.1254,W,042148,A*35

Out:       $GPGLL,4905.2834,N,12332.1254,W,042148,A*35

UDP In:    $GPRMC,042148,A,4905.2834,N,12332.1254,W,11.1,324,060315,17,E*6A

Out:       $GPRMC,042148,A,4905.2834,N,12332.1254,W,11.1,324,060315,17,E*6A

UDP In:    $GPVTG,324,T,307,M,11.1,N,20.5,K*49

Out:       $GPVTG,324,T,307,M,11.1,N,20.5,K*49

UDP In:    $GPZDA,042148,06,03,2015,07,00*47

Out:       $GPZDA,042148,06,03,2015,07,00*47

UDP In:    $GPGGA,042149,4905.2859,N,12332.1282,W,2,09,0.80,5,M,,,1,0304*10

Out:       $GPGGA,042149,4905.2859,N,12332.1282,W,2,09,0.80,5,M,,,1,0304*10

UDP In:    $GPGLL,4905.2859,N,12332.1282,W,042149,A*34

Out:       $GPGLL,4905.2859,N,12332.1282,W,042149,A*34

UDP In:    $GPRMC,042149,A,4905.2859,N,12332.1282,W,11.1,324,060315,17,E*6B

Out:       $GPRMC,042149,A,4905.2859,N,12332.1282,W,11.1,324,060315,17,E*6B

UDP In:    $GPVTG,324,T,307,M,11.1,N,20.5,K*49

Out:       $GPVTG,324,T,307,M,11.1,N,20.5,K*49

UDP In:    $GPZDA,042149,06,03,2015,07,00*46

Out:       $GPZDA,042149,06,03,2015,07,00*46

UDP In:    $GPGGA,042150,4905.2884,N,12332.1309,W,2,09,0.80,5,M,,,1,0304*1A

Out:       $GPGGA,042150,4905.2884,N,12332.1309,W,2,09,0.80,5,M,,,1,0304*1A

UDP In:    $GPGLL,4905.2884,N,12332.1309,W,042150,A*3E

Out:       $GPGLL,4905.2884,N,12332.1309,W,042150,A*3E

UDP In:    $GPRMC,042150,A,4905.2884,N,12332.1309,W,11.1,324,060315,17,E*61

Out:       $GPRMC,042150,A,4905.2884,N,12332.1309,W,11.1,324,060315,17,E*61

UDP In:    $GPVTG,324,T,307,M,11.1,N,20.5,K*49

Out:       $GPVTG,324,T,307,M,11.1,N,20.5,K*49

UDP In:    $GPZDA,042150,06,03,2015,07,00*4E

Out:       $GPZDA,042150,06,03,2015,07,00*4E

UDP In:    $GPGGA,042151,4905.2909,N,12332.1336,W,2,09,0.80,5,M,,,1,0304*13

Out:       $GPGGA,042151,4905.2909,N,12332.1336,W,2,09,0.80,5,M,,,1,0304*13

UDP In:    $GPGLL,4905.2909,N,12332.1336,W,042151,A*37

Out:       $GPGLL,4905.2909,N,12332.1336,W,042151,A*37

UDP In:    $GPRMC,042151,A,4905.2909,N,12332.1336,W,11.1,324,060315,17,E*68

Out:       $GPRMC,042151,A,4905.2909,N,12332.1336,W,11.1,324,060315,17,E*68

UDP In:    $GPVTG,324,T,307,M,11.1,N,20.5,K*49

Out:       $GPVTG,324,T,307,M,11.1,N,20.5,K*49

UDP In:    $GPZDA,042151,06,03,2015,07,00*4F

Out:       $GPZDA,042151,06,03,2015,07,00*4F

UDP In:    $GPGGA,042152,4905.2934,N,12332.1363,W,2,09,0.80,5,M,,,2,0304*1D

Out:       $GPGGA,042152,4905.2934,N,12332.1363,W,2,09,0.80,5,M,,,2,0304*1D

UDP In:    $GPGLL,4905.2934,N,12332.1363,W,042152,A*3A

Out:       $GPGLL,4905.2934,N,12332.1363,W,042152,A*3A

UDP In:    $GPRMC,042152,A,4905.2934,N,12332.1363,W,11.1,324,060315,17,E*65

Out:       $GPRMC,042152,A,4905.2934,N,12332.1363,W,11.1,324,060315,17,E*65

UDP In:    $GPVTG,324,T,307,M,11.1,N,20.5,K*49

Out:       $GPVTG,324,T,307,M,11.1,N,20.5,K*49

UDP In:    $GPZDA,042146,06,03,2015,07,00*49

Out:       $GPZDA,042146,06,03,2015,07,00*49

UDP In:    $GPGGA,042147,4905.2809,N,12332.1227,W,2,09,0.80,5,M,,,1,0304*14

Out:       $GPGGA,042147,4905.2809,N,12332.1227,W,2,09,0.80,5,M,,,1,0304*14

UDP In:    $GPGLL,4905.2809,N,12332.1227,W,042147,A*30

Out:       $GPGLL,4905.2809,N,12332.1227,W,042147,A*30

UDP In:    $GPRMC,042147,A,4905.2809,N,12332.1227,W,11.1,324,060315,17,E*6F

Out:       $GPRMC,042147,A,4905.2809,N,12332.1227,W,11.1,324,060315,17,E*6F

UDP In:    $GPVTG,324,T,307,M,11.1,N,20.5,K*49

Out:       $GPVTG,324,T,307,M,11.1,N,20.5,K*49

UDP In:    $GPZDA,042147,06,03,2015,07,00*48

Out:       $GPZDA,042147,06,03,2015,07,00*48

UDP In:    $GPGGA,042148,4905.2834,N,12332.1254,W,2,09,0.80,5,M,,,1,0304*11

Out:       $GPGGA,042148,4905.2834,N,12332.1254,W,2,09,0.80,5,M,,,1,0304*11

UDP In:    $GPGLL,4905.2834,N,12332.1254,W,042148,A*35

Out:       $GPGLL,4905.2834,N,12332.1254,W,042148,A*35

UDP In:    $GPRMC,042148,A,4905.2834,N,12332.1254,W,11.1,324,060315,17,E*6A

Out:       $GPRMC,042148,A,4905.2834,N,12332.1254,W,11.1,324,060315,17,E*6A

UDP In:    $GPVTG,324,T,307,M,11.1,N,20.5,K*49

Out:       $GPVTG,324,T,307,M,11.1,N,20.5,K*49

UDP In:    $GPZDA,042148,06,03,2015,07,00*47

Out:       $GPZDA,042148,06,03,2015,07,00*47

UDP In:    $GPGGA,042149,4905.2859,N,12332.1282,W,2,09,0.80,5,M,,,1,0304*10

Out:       $GPGGA,042149,4905.2859,N,12332.1282,W,2,09,0.80,5,M,,,1,0304*10

UDP In:    $GPGLL,4905.2859,N,12332.1282,W,042149,A*34

Out:       $GPGLL,4905.2859,N,12332.1282,W,042149,A*34

UDP In:    $GPRMC,042149,A,4905.2859,N,12332.1282,W,11.1,324,060315,17,E*6B

Out:       $GPRMC,042149,A,4905.2859,N,12332.1282,W,11.1,324,060315,17,E*6B

UDP In:    $GPVTG,324,T,307,M,11.1,N,20.5,K*49

Out:       $GPVTG,324,T,307,M,11.1,N,20.5,K*49

UDP In:    $GPZDA,042149,06,03,2015,07,00*46

Out:       $GPZDA,042149,06,03,2015,07,00*46

UDP In:    $GPGGA,042150,4905.2884,N,12332.1309,W,2,09,0.80,5,M,,,1,0304*1A

Out:       $GPGGA,042150,4905.2884,N,12332.1309,W,2,09,0.80,5,M,,,1,0304*1A

UDP In:    $GPGLL,4905.2884,N,12332.1309,W,042150,A*3E

Out:       $GPGLL,4905.2884,N,12332.1309,W,042150,A*3E

UDP In:    $GPRMC,042150,A,4905.2884,N,12332.1309,W,11.1,324,060315,17,E*61

Out:       $GPRMC,042150,A,4905.2884,N,12332.1309,W,11.1,324,060315,17,E*61

UDP In:    $GPVTG,324,T,307,M,11.1,N,20.5,K*49

Out:       $GPVTG,324,T,307,M,11.1,N,20.5,K*49

UDP In:    $GPZDA,042150,06,03,2015,07,00*4E

Out:       $GPZDA,042150,06,03,2015,07,00*4E

UDP In:    $GPGGA,042151,4905.2909,N,12332.1336,W,2,09,0.80,5,M,,,1,0304*13

Out:       $GPGGA,042151,4905.2909,N,12332.1336,W,2,09,0.80,5,M,,,1,0304*13

UDP In:    $GPGLL,4905.2909,N,12332.1336,W,042151,A*37

Out:       $GPGLL,4905.2909,N,12332.1336,W,042151,A*37

UDP In:    $GPRMC,042151,A,4905.2909,N,12332.1336,W,11.1,324,060315,17,E*68

Out:       $GPRMC,042151,A,4905.2909,N,12332.1336,W,11.1,324,060315,17,E*68

UDP In:    $GPVTG,324,T,307,M,11.1,N,20.5,K*49

Out:       $GPVTG,324,T,307,M,11.1,N,20.5,K*49

UDP In:    $GPZDA,042151,06,03,2015,07,00*4F

Out:       $GPZDA,042151,06,03,2015,07,00*4F

UDP In:    $GPGGA,042152,4905.2934,N,12332.1363,W,2,09,0.80,5,M,,,2,0304*1D

Out:       $GPGGA,042152,4905.2934,N,12332.1363,W,2,09,0.80,5,M,,,2,0304*1D

UDP In:    $GPGLL,4905.2934,N,12332.1363,W,042152,A*3A

Out:       $GPGLL,4905.2934,N,12332.1363,W,042152,A*3A

UDP In:    $GPRMC,042152,A,4905.2934,N,12332.1363,W,11.1,324,060315,17,E*65

Out:       $GPRMC,042152,A,4905.2934,N,12332.1363,W,11.1,324,060315,17,E*65

UDP In:    $GPVTG,324,T,307,M,11.1,N,20.5,K*49

Out:       $GPVTG,324,T,307,M,11.1,N,20.5,K*49

UDP In:    $GPZDA,042146,06,03,2015,07,00*49

Out:       $GPZDA,042146,06,03,2015,07,00*49

UDP In:    $GPGGA,042147,4905.2809,N,12332.1227,W,2,09,0.80,5,M,,,1,0304*14

Out:       $GPGGA,042147,4905.2809,N,12332.1227,W,2,09,0.80,5,M,,,1,0304*14

UDP In:    $GPGLL,4905.2809,N,12332.1227,W,042147,A*30

Out:       $GPGLL,4905.2809,N,12332.1227,W,042147,A*30

UDP In:    $GPRMC,042147,A,4905.2809,N,12332.1227,W,11.1,324,060315,17,E*6F

Out:       $GPRMC,042147,A,4905.2809,N,12332.1227,W,11.1,324,060315,17,E*6F

UDP In:    $GPVTG,324,T,307,M,11.1,N,20.5,K*49

Out:       $GPVTG,324,T,307,M,11.1,N,20.5,K*49

UDP In:    $GPZDA,042147,06,03,2015,07,00*48

Out:       $GPZDA,042147,06,03,2015,07,00*48

UDP In:    $GPGGA,042148,4905.2834,N,12332.1254,W,2,09,0.80,5,M,,,1,0304*11

Out:       $GPGGA,042148,4905.2834,N,12332.1254,W,2,09,0.80,5,M,,,1,0304*11

UDP In:    $GPGLL,4905.2834,N,12332.1254,W,042148,A*35

Out:       $GPGLL,4905.2834,N,12332.1254,W,042148,A*35

UDP In:    $GPRMC,042148,A,4905.2834,N,12332.1254,W,11.1,324,060315,17,E*6A

Out:       $GPRMC,042148,A,4905.2834,N,12332.1254,W,11.1,324,060315,17,E*6A

UDP In:    $GPVTG,324,T,307,M,11.1,N,20.5,K*49

Out:       $GPVTG,324,T,307,M,11.1,N,20.5,K*49

UDP In:    $GPZDA,042148,06,03,2015,07,00*47

Out:       $GPZDA,042148,06,03,2015,07,00*47

UDP In:    $GPGGA,042149,4905.2859,N,12332.1282,W,2,09,0.80,5,M,,,1,0304*10

Out:       $GPGGA,042149,4905.2859,N,12332.1282,W,2,09,0.80,5,M,,,1,0304*10

UDP In:    $GPGLL,4905.2859,N,12332.1282,W,042149,A*34

Out:       $GPGLL,4905.2859,N,12332.1282,W,042149,A*34

UDP In:    $GPRMC,042149,A,4905.2859,N,12332.1282,W,11.1,324,060315,17,E*6B

Out:       $GPRMC,042149,A,4905.2859,N,12332.1282,W,11.1,324,060315,17,E*6B

UDP In:    $GPVTG,324,T,307,M,11.1,N,20.5,K*49

Out:       $GPVTG,324,T,307,M,11.1,N,20.5,K*49

UDP In:    $GPZDA,042149,06,03,2015,07,00*46

Out:       $GPZDA,042149,06,03,2015,07,00*46

UDP In:    $GPGGA,042150,4905.2884,N,12332.1309,W,2,09,0.80,5,M,,,1,0304*1A

Out:       $GPGGA,042150,4905.2884,N,12332.1309,W,2,09,0.80,5,M,,,1,0304*1A

UDP In:    $GPGLL,4905.2884,N,12332.1309,W,042150,A*3E

Out:       $GPGLL,4905.2884,N,12332.1309,W,042150,A*3E

UDP In:    $GPRMC,042150,A,4905.2884,N,12332.1309,W,11.1,324,060315,17,E*61

Out:       $GPRMC,042150,A,4905.2884,N,12332.1309,W,11.1,324,060315,17,E*61

UDP In:    $GPVTG,324,T,307,M,11.1,N,20.5,K*49

Out:       $GPVTG,324,T,307,M,11.1,N,20.5,K*49

UDP In:    $SDDBS,,,0314.4,M,,*13

Out:       $SDDBS,,,0314.4,M,,*13

UDP In:    $GPZDA,042150,06,03,2015,07,00*4E

Out:       $GPZDA,042150,06,03,2015,07,00*4E

UDP In:    $GPGGA,042151,4905.2909,N,12332.1336,W,2,09,0.80,5,M,,,1,0304*13

Out:       $GPGGA,042151,4905.2909,N,12332.1336,W,2,09,0.80,5,M,,,1,0304*13

UDP In:    $GPGLL,4905.2909,N,12332.1336,W,042151,A*37

Out:       $GPGLL,4905.2909,N,12332.1336,W,042151,A*37

UDP In:    $GPRMC,042151,A,4905.2909,N,12332.1336,W,11.1,324,060315,17,E*68

Out:       $GPRMC,042151,A,4905.2909,N,12332.1336,W,11.1,324,060315,17,E*68

UDP In:    $GPVTG,324,T,307,M,11.1,N,20.5,K*49

Out:       $GPVTG,324,T,307,M,11.1,N,20.5,K*49

UDP In:    $GPZDA,042151,06,03,2015,07,00*4F

Out:       $GPZDA,042151,06,03,2015,07,00*4F

UDP In:    $GPGGA,042152,4905.2934,N,12332.1363,W,2,09,0.80,5,M,,,2,0304*1D

Out:       $GPGGA,042152,4905.2934,N,12332.1363,W,2,09,0.80,5,M,,,2,0304*1D

UDP In:    $GPGLL,4905.2934,N,12332.1363,W,042152,A*3A

Out:       $GPGLL,4905.2934,N,12332.1363,W,042152,A*3A

UDP In:    $GPRMC,042152,A,4905.2934,N,12332.1363,W,11.1,324,060315,17,E*65

Out:       $GPRMC,042152,A,4905.2934,N,12332.1363,W,11.1,324,060315,17,E*65

UDP In:    $GPVTG,324,T,307,M,11.1,N,20.5,K*49

Out:       $GPVTG,324,T,307,M,11.1,N,20.5,K*49

UDP In:    $GPZDA,042146,06,03,2015,07,00*49

Out:       $GPZDA,042146,06,03,2015,07,00*49

UDP In:    $GPGGA,042147,4905.2809,N,12332.1227,W,2,09,0.80,5,M,,,1,0304*14

Out:       $GPGGA,042147,4905.2809,N,12332.1227,W,2,09,0.80,5,M,,,1,0304*14

UDP In:    $GPGLL,4905.2809,N,12332.1227,W,042147,A*30

Out:       $GPGLL,4905.2809,N,12332.1227,W,042147,A*30

UDP In:    $GPRMC,042147,A,4905.2809,N,12332.1227,W,11.1,324,060315,17,E*6F

Out:       $GPRMC,042147,A,4905.2809,N,12332.1227,W,11.1,324,060315,17,E*6F

UDP In:    $GPVTG,324,T,307,M,11.1,N,20.5,K*49

Out:       $GPVTG,324,T,307,M,11.1,N,20.5,K*49

UDP In:    $GPZDA,042147,06,03,2015,07,00*48

Out:       $GPZDA,042147,06,03,2015,07,00*48

UDP In:    $GPGGA,042148,4905.2834,N,12332.1254,W,2,09,0.80,5,M,,,1,0304*11

Out:       $GPGGA,042148,4905.2834,N,12332.1254,W,2,09,0.80,5,M,,,1,0304*11

UDP In:    $GPGLL,4905.2834,N,12332.1254,W,042148,A*35

Out:       $GPGLL,4905.2834,N,12332.1254,W,042148,A*35

UDP In:    $GPRMC,042148,A,4905.2834,N,12332.1254,W,11.1,324,060315,17,E*6A

Out:       $GPRMC,042148,A,4905.2834,N,12332.1254,W,11.1,324,060315,17,E*6A

UDP In:    $GPVTG,324,T,307,M,11.1,N,20.5,K*49

Out:       $GPVTG,324,T,307,M,11.1,N,20.5,K*49

UDP In:    $GPZDA,042148,06,03,2015,07,00*47

Out:       $GPZDA,042148,06,03,2015,07,00*47

UDP In:    $GPGGA,042149,4905.2859,N,12332.1282,W,2,09,0.80,5,M,,,1,0304*10

Out:       $GPGGA,042149,4905.2859,N,12332.1282,W,2,09,0.80,5,M,,,1,0304*10

UDP In:    $GPGLL,4905.2859,N,12332.1282,W,042149,A*34

Out:       $GPGLL,4905.2859,N,12332.1282,W,042149,A*34

UDP In:    $GPRMC,042149,A,4905.2859,N,12332.1282,W,11.1,324,060315,17,E*6B

Out:       $GPRMC,042149,A,4905.2859,N,12332.1282,W,11.1,324,060315,17,E*6B

UDP In:    $GPVTG,324,T,307,M,11.1,N,20.5,K*49

Out:       $GPVTG,324,T,307,M,11.1,N,20.5,K*49

UDP In:    $GPZDA,042149,06,03,2015,07,00*46

Out:       $GPZDA,042149,06,03,2015,07,00*46

UDP In:    $GPGGA,042150,4905.2884,N,12332.1309,W,2,09,0.80,5,M,,,1,0304*1A

Out:       $GPGGA,042150,4905.2884,N,12332.1309,W,2,09,0.80,5,M,,,1,0304*1A

UDP In:    $GPGLL,4905.2884,N,12332.1309,W,042150,A*3E

Out:       $GPGLL,4905.2884,N,12332.1309,W,042150,A*3E

UDP In:    $GPRMC,042150,A,4905.2884,N,12332.1309,W,11.1,324,060315,17,E*61

Out:       $GPRMC,042150,A,4905.2884,N,12332.1309,W,11.1,324,060315,17,E*61

UDP In:    $GPVTG,324,T,307,M,11.1,N,20.5,K*49

Out:       $GPVTG,324,T,307,M,11.1,N,20.5,K*49

UDP In:    $GPZDA,042150,06,03,2015,07,00*4E

Out:       $GPZDA,042150,06,03,2015,07,00*4E

UDP In:    $GPGGA,042151,4905.2909,N,12332.1336,W,2,09,0.80,5,M,,,1,0304*13

Out:       $GPGGA,042151,4905.2909,N,12332.1336,W,2,09,0.80,5,M,,,1,0304*13

UDP In:    $GPGLL,4905.2909,N,12332.1336,W,042151,A*37

Out:       $GPGLL,4905.2909,N,12332.1336,W,042151,A*37

UDP In:    $GPRMC,042151,A,4905.2909,N,12332.1336,W,11.1,324,060315,17,E*68

Out:       $GPRMC,042151,A,4905.2909,N,12332.1336,W,11.1,324,060315,17,E*68

UDP In:    $GPVTG,324,T,307,M,11.1,N,20.5,K*49

Out:       $GPVTG,324,T,307,M,11.1,N,20.5,K*49

UDP In:    $GPZDA,042151,06,03,2015,07,00*4F

Out:       $GPZDA,042151,06,03,2015,07,00*4F

UDP In:    $GPGGA,042152,4905.2934,N,12332.1363,W,2,09,0.80,5,M,,,2,0304*1D

Out:       $GPGGA,042152,4905.2934,N,12332.1363,W,2,09,0.80,5,M,,,2,0304*1D

UDP In:    $GPGLL,4905.2934,N,12332.1363,W,042152,A*3A

Out:       $GPGLL,4905.2934,N,12332.1363,W,042152,A*3A

UDP In:    $GPRMC,042152,A,4905.2934,N,12332.1363,W,11.1,324,060315,17,E*65

Out:       $GPRMC,042152,A,4905.2934,N,12332.1363,W,11.1,324,060315,17,E*65

UDP In:    $GPVTG,324,T,307,M,11.1,N,20.5,K*49

Out:       $GPVTG,324,T,307,M,11.1,N,20.5,K*49

UDP In:    $GPZDA,042146,06,03,2015,07,00*49

Out:       $GPZDA,042146,06,03,2015,07,00*49

UDP In:    $GPGGA,042147,4905.2809,N,12332.1227,W,2,09,0.80,5,M,,,1,0304*14

Out:       $GPGGA,042147,4905.2809,N,12332.1227,W,2,09,0.80,5,M,,,1,0304*14

UDP In:    $GPGLL,4905.2809,N,12332.1227,W,042147,A*30

Out:       $GPGLL,4905.2809,N,12332.1227,W,042147,A*30

UDP In:    $GPRMC,042147,A,4905.2809,N,12332.1227,W,11.1,324,060315,17,E*6F

Out:       $GPRMC,042147,A,4905.2809,N,12332.1227,W,11.1,324,060315,17,E*6F

UDP In:    $GPVTG,324,T,307,M,11.1,N,20.5,K*49

Out:       $GPVTG,324,T,307,M,11.1,N,20.5,K*49

UDP In:    $GPZDA,042147,06,03,2015,07,00*48

Out:       $GPZDA,042147,06,03,2015,07,00*48

UDP In:    $GPGGA,042148,4905.2834,N,12332.1254,W,2,09,0.80,5,M,,,1,0304*11

Out:       $GPGGA,042148,4905.2834,N,12332.1254,W,2,09,0.80,5,M,,,1,0304*11

UDP In:    $GPGLL,4905.2834,N,12332.1254,W,042148,A*35

Out:       $GPGLL,4905.2834,N,12332.1254,W,042148,A*35

UDP In:    $GPRMC,042148,A,4905.2834,N,12332.1254,W,11.1,324,060315,17,E*6A

Out:       $GPRMC,042148,A,4905.2834,N,12332.1254,W,11.1,324,060315,17,E*6A

UDP In:    $GPVTG,324,T,307,M,11.1,N,20.5,K*49

Out:       $GPVTG,324,T,307,M,11.1,N,20.5,K*49

UDP In:    $GPZDA,042148,06,03,2015,07,00*47

Out:       $GPZDA,042148,06,03,2015,07,00*47

UDP In:    $GPGGA,042149,4905.2859,N,12332.1282,W,2,09,0.80,5,M,,,1,0304*10

Out:       $GPGGA,042149,4905.2859,N,12332.1282,W,2,09,0.80,5,M,,,1,0304*10

UDP In:    $GPGLL,4905.2859,N,12332.1282,W,042149,A*34

Out:       $GPGLL,4905.2859,N,12332.1282,W,042149,A*34

UDP In:    $GPRMC,042149,A,4905.2859,N,12332.1282,W,11.1,324,060315,17,E*6B

Out:       $GPRMC,042149,A,4905.2859,N,12332.1282,W,11.1,324,060315,17,E*6B

UDP In:    $GPVTG,324,T,307,M,11.1,N,20.5,K*49

Out:       $GPVTG,324,T,307,M,11.1,N,20.5,K*49

UDP In:    $GPZDA,042149,06,03,2015,07,00*46

Out:       $GPZDA,042149,06,03,2015,07,00*46

UDP In:    $GPGGA,042150,4905.2884,N,12332.1309,W,2,09,0.80,5,M,,,1,0304*1A

Out:       $GPGGA,042150,4905.2884,N,12332.1309,W,2,09,0.80,5,M,,,1,0304*1A

UDP In:    $GPGLL,4905.2884,N,12332.1309,W,042150,A*3E

Out:       $GPGLL,4905.2884,N,12332.1309,W,042150,A*3E

UDP In:    $GPRMC,042150,A,4905.2884,N,12332.1309,W,11.1,324,060315,17,E*61

Out:       $GPRMC,042150,A,4905.2884,N,12332.1309,W,11.1,324,060315,17,E*61

UDP In:    $GPVTG,324,T,307,M,11.1,N,20.5,K*49

Out:       $GPVTG,324,T,307,M,11.1,N,20.5,K*49

UDP In:    $GPZDA,042150,06,03,2015,07,00*4E

Out:       $GPZDA,042150,06,03,2015,07,00*4E

UDP In:    $GPGGA,042151,4905.2909,N,12332.1336,W,2,09,0.80,5,M,,,1,0304*13

Out:       $GPGGA,042151,4905.2909,N,12332.1336,W,2,09,0.80,5,M,,,1,0304*13

UDP In:    $GPGLL,4905.2909,N,12332.1336,W,042151,A*37

Out:       $GPGLL,4905.2909,N,12332.1336,W,042151,A*37

UDP In:    $GPRMC,042151,A,4905.2909,N,12332.1336,W,11.1,324,060315,17,E*68

Out:       $GPRMC,042151,A,4905.2909,N,12332.1336,W,11.1,324,060315,17,E*68

UDP In:    $GPVTG,324,T,307,M,11.1,N,20.5,K*49

Out:       $GPVTG,324,T,307,M,11.1,N,20.5,K*49

UDP In:    $GPZDA,042151,06,03,2015,07,00*4F

Out:       $GPZDA,042151,06,03,2015,07,00*4F

UDP In:    $GPGGA,042152,4905.2934,N,12332.1363,W,2,09,0.80,5,M,,,2,0304*1D

Out:       $GPGGA,042152,4905.2934,N,12332.1363,W,2,09,0.80,5,M,,,2,0304*1D

UDP In:    $GPGLL,4905.2934,N,12332.1363,W,042152,A*3A

Out:       $GPGLL,4905.2934,N,12332.1363,W,042152,A*3A

UDP In:    $GPRMC,042152,A,4905.2934,N,12332.1363,W,11.1,324,060315,17,E*65

Out:       $GPRMC,042152,A,4905.2934,N,12332.1363,W,11.1,324,060315,17,E*65

UDP In:    $GPVTG,324,T,307,M,11.1,N,20.5,K*49

Out:       $GPVTG,324,T,307,M,11.1,N,20.5,K*49

UDP In:    $GPZDA,042146,06,03,2015,07,00*49

Out:       $GPZDA,042146,06,03,2015,07,00*49

UDP In:    $GPGGA,042147,4905.2809,N,12332.1227,W,2,09,0.80,5,M,,,1,0304*14

Out:       $GPGGA,042147,4905.2809,N,12332.1227,W,2,09,0.80,5,M,,,1,0304*14

UDP In:    $GPGLL,4905.2809,N,12332.1227,W,042147,A*30

Out:       $GPGLL,4905.2809,N,12332.1227,W,042147,A*30

UDP In:    $GPRMC,042147,A,4905.2809,N,12332.1227,W,11.1,324,060315,17,E*6F

Out:       $GPRMC,042147,A,4905.2809,N,12332.1227,W,11.1,324,060315,17,E*6F

UDP In:    $GPVTG,324,T,307,M,11.1,N,20.5,K*49

Out:       $GPVTG,324,T,307,M,11.1,N,20.5,K*49

UDP In:    $GPZDA,042147,06,03,2015,07,00*48

Out:       $GPZDA,042147,06,03,2015,07,00*48

UDP In:    $GPGGA,042148,4905.2834,N,12332.1254,W,2,09,0.80,5,M,,,1,0304*11

Out:       $GPGGA,042148,4905.2834,N,12332.1254,W,2,09,0.80,5,M,,,1,0304*11

UDP In:    $GPGLL,4905.2834,N,12332.1254,W,042148,A*35

Out:       $GPGLL,4905.2834,N,12332.1254,W,042148,A*35

UDP In:    $GPRMC,042148,A,4905.2834,N,12332.1254,W,11.1,324,060315,17,E*6A

Out:       $GPRMC,042148,A,4905.2834,N,12332.1254,W,11.1,324,060315,17,E*6A

UDP In:    $GPVTG,324,T,307,M,11.1,N,20.5,K*49

Out:       $GPVTG,324,T,307,M,11.1,N,20.5,K*49

UDP In:    $GPZDA,042148,06,03,2015,07,00*47

Out:       $GPZDA,042148,06,03,2015,07,00*47

UDP In:    $GPGGA,042149,4905.2859,N,12332.1282,W,2,09,0.80,5,M,,,1,0304*10

Out:       $GPGGA,042149,4905.2859,N,12332.1282,W,2,09,0.80,5,M,,,1,0304*10

UDP In:    $GPGLL,4905.2859,N,12332.1282,W,042149,A*34

Out:       $GPGLL,4905.2859,N,12332.1282,W,042149,A*34

UDP In:    $GPRMC,042149,A,4905.2859,N,12332.1282,W,11.1,324,060315,17,E*6B

Out:       $GPRMC,042149,A,4905.2859,N,12332.1282,W,11.1,324,060315,17,E*6B

UDP In:    $GPVTG,324,T,307,M,11.1,N,20.5,K*49

Out:       $GPVTG,324,T,307,M,11.1,N,20.5,K*49

UDP In:    $SDDBS,,,0314.8,M,,*1F

Out:       $SDDBS,,,0314.8,M,,*1F

UDP In:    $GPZDA,042149,06,03,2015,07,00*46

Out:       $GPZDA,042149,06,03,2015,07,00*46

UDP In:    $GPGGA,042150,4905.2884,N,12332.1309,W,2,09,0.80,5,M,,,1,0304*1A

Out:       $GPGGA,042150,4905.2884,N,12332.1309,W,2,09,0.80,5,M,,,1,0304*1A

UDP In:    $GPGLL,4905.2884,N,12332.1309,W,042150,A*3E

Out:       $GPGLL,4905.2884,N,12332.1309,W,042150,A*3E

UDP In:    $GPRMC,042150,A,4905.2884,N,12332.1309,W,11.1,324,060315,17,E*61

Out:       $GPRMC,042150,A,4905.2884,N,12332.1309,W,11.1,324,060315,17,E*61

UDP In:    $GPVTG,324,T,307,M,11.1,N,20.5,K*49

Out:       $GPVTG,324,T,307,M,11.1,N,20.5,K*49

UDP In:    $GPZDA,042150,06,03,2015,07,00*4E

Out:       $GPZDA,042150,06,03,2015,07,00*4E

UDP In:    $GPGGA,042151,4905.2909,N,12332.1336,W,2,09,0.80,5,M,,,1,0304*13

Out:       $GPGGA,042151,4905.2909,N,12332.1336,W,2,09,0.80,5,M,,,1,0304*13

UDP In:    $GPGLL,4905.2909,N,12332.1336,W,042151,A*37

Out:       $GPGLL,4905.2909,N,12332.1336,W,042151,A*37

UDP In:    $GPRMC,042151,A,4905.2909,N,12332.1336,W,11.1,324,060315,17,E*68

Out:       $GPRMC,042151,A,4905.2909,N,12332.1336,W,11.1,324,060315,17,E*68

UDP In:    $GPVTG,324,T,307,M,11.1,N,20.5,K*49

Out:       $GPVTG,324,T,307,M,11.1,N,20.5,K*49

UDP In:    $GPZDA,042151,06,03,2015,07,00*4F

Out:       $GPZDA,042151,06,03,2015,07,00*4F

UDP In:    $GPGGA,042152,4905.2934,N,12332.1363,W,2,09,0.80,5,M,,,2,0304*1D

Out:       $GPGGA,042152,4905.2934,N,12332.1363,W,2,09,0.80,5,M,,,2,0304*1D

UDP In:    $GPGLL,4905.2934,N,12332.1363,W,042152,A*3A

Out:       $GPGLL,4905.2934,N,12332.1363,W,042152,A*3A

UDP In:    $GPRMC,042152,A,4905.2934,N,12332.1363,W,11.1,324,060315,17,E*65

Out:       $GPRMC,042152,A,4905.2934,N,12332.1363,W,11.1,324,060315,17,E*65

UDP In:    $GPVTG,324,T,307,M,11.1,N,20.5,K*49

Out:       $GPVTG,324,T,307,M,11.1,N,20.5,K*49

UDP In:    $GPZDA,042146,06,03,2015,07,00*49

Out:       $GPZDA,042146,06,03,2015,07,00*49

UDP In:    $GPGGA,042147,4905.2809,N,12332.1227,W,2,09,0.80,5,M,,,1,0304*14

Out:       $GPGGA,042147,4905.2809,N,12332.1227,W,2,09,0.80,5,M,,,1,0304*14

UDP In:    $GPGLL,4905.2809,N,12332.1227,W,042147,A*30

Out:       $GPGLL,4905.2809,N,12332.1227,W,042147,A*30

UDP In:    $GPRMC,042147,A,4905.2809,N,12332.1227,W,11.1,324,060315,17,E*6F

Out:       $GPRMC,042147,A,4905.2809,N,12332.1227,W,11.1,324,060315,17,E*6F

UDP In:    $GPVTG,324,T,307,M,11.1,N,20.5,K*49

Out:       $GPVTG,324,T,307,M,11.1,N,20.5,K*49

UDP In:    $GPZDA,042147,06,03,2015,07,00*48

Out:       $GPZDA,042147,06,03,2015,07,00*48

UDP In:    $GPGGA,042148,4905.2834,N,12332.1254,W,2,09,0.80,5,M,,,1,0304*11

Out:       $GPGGA,042148,4905.2834,N,12332.1254,W,2,09,0.80,5,M,,,1,0304*11

UDP In:    $GPGLL,4905.2834,N,12332.1254,W,042148,A*35

Out:       $GPGLL,4905.2834,N,12332.1254,W,042148,A*35

UDP In:    $GPRMC,042148,A,4905.2834,N,12332.1254,W,11.1,324,060315,17,E*6A

Out:       $GPRMC,042148,A,4905.2834,N,12332.1254,W,11.1,324,060315,17,E*6A

UDP In:    $GPVTG,324,T,307,M,11.1,N,20.5,K*49

Out:       $GPVTG,324,T,307,M,11.1,N,20.5,K*49

UDP In:    $GPZDA,042148,06,03,2015,07,00*47

Out:       $GPZDA,042148,06,03,2015,07,00*47

UDP In:    $GPGGA,042149,4905.2859,N,12332.1282,W,2,09,0.80,5,M,,,1,0304*10

Out:       $GPGGA,042149,4905.2859,N,12332.1282,W,2,09,0.80,5,M,,,1,0304*10

UDP In:    $GPGLL,4905.2859,N,12332.1282,W,042149,A*34

Out:       $GPGLL,4905.2859,N,12332.1282,W,042149,A*34

UDP In:    $GPRMC,042149,A,4905.2859,N,12332.1282,W,11.1,324,060315,17,E*6B

Out:       $GPRMC,042149,A,4905.2859,N,12332.1282,W,11.1,324,060315,17,E*6B

UDP In:    $GPVTG,324,T,307,M,11.1,N,20.5,K*49

Out:       $GPVTG,324,T,307,M,11.1,N,20.5,K*49

UDP In:    $GPZDA,042149,06,03,2015,07,00*46

Out:       $GPZDA,042149,06,03,2015,07,00*46

UDP In:    $GPGGA,042150,4905.2884,N,12332.1309,W,2,09,0.80,5,M,,,1,0304*1A

Out:       $GPGGA,042150,4905.2884,N,12332.1309,W,2,09,0.80,5,M,,,1,0304*1A

UDP In:    $GPGLL,4905.2884,N,12332.1309,W,042150,A*3E

Out:       $GPGLL,4905.2884,N,12332.1309,W,042150,A*3E

UDP In:    $GPRMC,042150,A,4905.2884,N,12332.1309,W,11.1,324,060315,17,E*61

Out:       $GPRMC,042150,A,4905.2884,N,12332.1309,W,11.1,324,060315,17,E*61

UDP In:    $GPVTG,324,T,307,M,11.1,N,20.5,K*49

Out:       $GPVTG,324,T,307,M,11.1,N,20.5,K*49

UDP In:    $GPZDA,042150,06,03,2015,07,00*4E

Out:       $GPZDA,042150,06,03,2015,07,00*4E

UDP In:    $GPGGA,042151,4905.2909,N,12332.1336,W,2,09,0.80,5,M,,,1,0304*13

Out:       $GPGGA,042151,4905.2909,N,12332.1336,W,2,09,0.80,5,M,,,1,0304*13

UDP In:    $GPGLL,4905.2909,N,12332.1336,W,042151,A*37

Out:       $GPGLL,4905.2909,N,12332.1336,W,042151,A*37

UDP In:    $GPRMC,042151,A,4905.2909,N,12332.1336,W,11.1,324,060315,17,E*68

Out:       $GPRMC,042151,A,4905.2909,N,12332.1336,W,11.1,324,060315,17,E*68

UDP In:    $GPVTG,324,T,307,M,11.1,N,20.5,K*49

Out:       $GPVTG,324,T,307,M,11.1,N,20.5,K*49

UDP In:    $GPZDA,042151,06,03,2015,07,00*4F

Out:       $GPZDA,042151,06,03,2015,07,00*4F

UDP In:    $GPGGA,042152,4905.2934,N,12332.1363,W,2,09,0.80,5,M,,,2,0304*1D

Out:       $GPGGA,042152,4905.2934,N,12332.1363,W,2,09,0.80,5,M,,,2,0304*1D

UDP In:    $GPGLL,4905.2934,N,12332.1363,W,042152,A*3A

Out:       $GPGLL,4905.2934,N,12332.1363,W,042152,A*3A

UDP In:    $GPRMC,042152,A,4905.2934,N,12332.1363,W,11.1,324,060315,17,E*65

Out:       $GPRMC,042152,A,4905.2934,N,12332.1363,W,11.1,324,060315,17,E*65

UDP In:    $GPVTG,324,T,307,M,11.1,N,20.5,K*49

Out:       $GPVTG,324,T,307,M,11.1,N,20.5,K*49

UDP In:    $GPZDA,042146,06,03,2015,07,00*49

Out:       $GPZDA,042146,06,03,2015,07,00*49

UDP In:    $GPGGA,042147,4905.2809,N,12332.1227,W,2,09,0.80,5,M,,,1,0304*14

Out:       $GPGGA,042147,4905.2809,N,12332.1227,W,2,09,0.80,5,M,,,1,0304*14

UDP In:    $GPGLL,4905.2809,N,12332.1227,W,042147,A*30

Out:       $GPGLL,4905.2809,N,12332.1227,W,042147,A*30

UDP In:    $GPRMC,042147,A,4905.2809,N,12332.1227,W,11.1,324,060315,17,E*6F

Out:       $GPRMC,042147,A,4905.2809,N,12332.1227,W,11.1,324,060315,17,E*6F

UDP In:    $GPVTG,324,T,307,M,11.1,N,20.5,K*49

Out:       $GPVTG,324,T,307,M,11.1,N,20.5,K*49

UDP In:    $GPZDA,042147,06,03,2015,07,00*48

Out:       $GPZDA,042147,06,03,2015,07,00*48

UDP In:    $GPGGA,042148,4905.2834,N,12332.1254,W,2,09,0.80,5,M,,,1,0304*11

Out:       $GPGGA,042148,4905.2834,N,12332.1254,W,2,09,0.80,5,M,,,1,0304*11

UDP In:    $GPGLL,4905.2834,N,12332.1254,W,042148,A*35

Out:       $GPGLL,4905.2834,N,12332.1254,W,042148,A*35

UDP In:    $GPRMC,042148,A,4905.2834,N,12332.1254,W,11.1,324,060315,17,E*6A

Out:       $GPRMC,042148,A,4905.2834,N,12332.1254,W,11.1,324,060315,17,E*6A

UDP In:    $GPVTG,324,T,307,M,11.1,N,20.5,K*49

Out:       $GPVTG,324,T,307,M,11.1,N,20.5,K*49

UDP In:    $GPZDA,042148,06,03,2015,07,00*47

Out:       $GPZDA,042148,06,03,2015,07,00*47

UDP In:    $GPGGA,042149,4905.2859,N,12332.1282,W,2,09,0.80,5,M,,,1,0304*10

Out:       $GPGGA,042149,4905.2859,N,12332.1282,W,2,09,0.80,5,M,,,1,0304*10

UDP In:    $GPGLL,4905.2859,N,12332.1282,W,042149,A*34

Out:       $GPGLL,4905.2859,N,12332.1282,W,042149,A*34

UDP In:    $GPRMC,042149,A,4905.2859,N,12332.1282,W,11.1,324,060315,17,E*6B

Out:       $GPRMC,042149,A,4905.2859,N,12332.1282,W,11.1,324,060315,17,E*6B

UDP In:    $GPVTG,324,T,307,M,11.1,N,20.5,K*49

Out:       $GPVTG,324,T,307,M,11.1,N,20.5,K*49

UDP In:    $GPZDA,042149,06,03,2015,07,00*46

Out:       $GPZDA,042149,06,03,2015,07,00*46

UDP In:    $GPGGA,042150,4905.2884,N,12332.1309,W,2,09,0.80,5,M,,,1,0304*1A

Out:       $GPGGA,042150,4905.2884,N,12332.1309,W,2,09,0.80,5,M,,,1,0304*1A

UDP In:    $GPGLL,4905.2884,N,12332.1309,W,042150,A*3E

Out:       $GPGLL,4905.2884,N,12332.1309,W,042150,A*3E

UDP In:    $GPRMC,042150,A,4905.2884,N,12332.1309,W,11.1,324,060315,17,E*61

Out:       $GPRMC,042150,A,4905.2884,N,12332.1309,W,11.1,324,060315,17,E*61

UDP In:    $GPVTG,324,T,307,M,11.1,N,20.5,K*49

Out:       $GPVTG,324,T,307,M,11.1,N,20.5,K*49

UDP In:    $GPZDA,042150,06,03,2015,07,00*4E

Out:       $GPZDA,042150,06,03,2015,07,00*4E

UDP In:    $GPGGA,042151,4905.2909,N,12332.1336,W,2,09,0.80,5,M,,,1,0304*13

Out:       $GPGGA,042151,4905.2909,N,12332.1336,W,2,09,0.80,5,M,,,1,0304*13

UDP In:    $GPGLL,4905.2909,N,12332.1336,W,042151,A*37

Out:       $GPGLL,4905.2909,N,12332.1336,W,042151,A*37

UDP In:    $GPRMC,042151,A,4905.2909,N,12332.1336,W,11.1,324,060315,17,E*68

Out:       $GPRMC,042151,A,4905.2909,N,12332.1336,W,11.1,324,060315,17,E*68

UDP In:    $GPVTG,324,T,307,M,11.1,N,20.5,K*49

Out:       $GPVTG,324,T,307,M,11.1,N,20.5,K*49

UDP In:    $GPZDA,042151,06,03,2015,07,00*4F

Out:       $GPZDA,042151,06,03,2015,07,00*4F

UDP In:    $GPGGA,042152,4905.2934,N,12332.1363,W,2,09,0.80,5,M,,,2,0304*1D

Out:       $GPGGA,042152,4905.2934,N,12332.1363,W,2,09,0.80,5,M,,,2,0304*1D

UDP In:    $GPGLL,4905.2934,N,12332.1363,W,042152,A*3A

Out:       $GPGLL,4905.2934,N,12332.1363,W,042152,A*3A

UDP In:    $GPRMC,042152,A,4905.2934,N,12332.1363,W,11.1,324,060315,17,E*65

Out:       $GPRMC,042152,A,4905.2934,N,12332.1363,W,11.1,324,060315,17,E*65

UDP In:    $GPVTG,324,T,307,M,11.1,N,20.5,K*49

Out:       $GPVTG,324,T,307,M,11.1,N,20.5,K*49

UDP In:    $GPZDA,042146,06,03,2015,07,00*49

Out:       $GPZDA,042146,06,03,2015,07,00*49

UDP In:    $GPGGA,042147,4905.2809,N,12332.1227,W,2,09,0.80,5,M,,,1,0304*14

Out:       $GPGGA,042147,4905.2809,N,12332.1227,W,2,09,0.80,5,M,,,1,0304*14

UDP In:    $GPGLL,4905.2809,N,12332.1227,W,042147,A*30

Out:       $GPGLL,4905.2809,N,12332.1227,W,042147,A*30

UDP In:    $GPRMC,042147,A,4905.2809,N,12332.1227,W,11.1,324,060315,17,E*6F

Out:       $GPRMC,042147,A,4905.2809,N,12332.1227,W,11.1,324,060315,17,E*6F

UDP In:    $GPVTG,324,T,307,M,11.1,N,20.5,K*49

Out:       $GPVTG,324,T,307,M,11.1,N,20.5,K*49

UDP In:    $GPZDA,042147,06,03,2015,07,00*48

Out:       $GPZDA,042147,06,03,2015,07,00*48

UDP In:    $GPGGA,042148,4905.2834,N,12332.1254,W,2,09,0.80,5,M,,,1,0304*11

Out:       $GPGGA,042148,4905.2834,N,12332.1254,W,2,09,0.80,5,M,,,1,0304*11

UDP In:    $GPGLL,4905.2834,N,12332.1254,W,042148,A*35

Out:       $GPGLL,4905.2834,N,12332.1254,W,042148,A*35

UDP In:    $GPRMC,042148,A,4905.2834,N,12332.1254,W,11.1,324,060315,17,E*6A

Out:       $GPRMC,042148,A,4905.2834,N,12332.1254,W,11.1,324,060315,17,E*6A

UDP In:    $GPVTG,324,T,307,M,11.1,N,20.5,K*49

Out:       $GPVTG,324,T,307,M,11.1,N,20.5,K*49

UDP In:    $GPZDA,042148,06,03,2015,07,00*47

Out:       $GPZDA,042148,06,03,2015,07,00*47

UDP In:    $GPGGA,042149,4905.2859,N,12332.1282,W,2,09,0.80,5,M,,,1,0304*10

Out:       $GPGGA,042149,4905.2859,N,12332.1282,W,2,09,0.80,5,M,,,1,0304*10

UDP In:    $GPGLL,4905.2859,N,12332.1282,W,042149,A*34

Out:       $GPGLL,4905.2859,N,12332.1282,W,042149,A*34

UDP In:    $GPRMC,042149,A,4905.2859,N,12332.1282,W,11.1,324,060315,17,E*6B

Out:       $GPRMC,042149,A,4905.2859,N,12332.1282,W,11.1,324,060315,17,E*6B

UDP In:    $GPVTG,324,T,307,M,11.1,N,20.5,K*49

Out:       $GPVTG,324,T,307,M,11.1,N,20.5,K*49

UDP In:    $GPZDA,042149,06,03,2015,07,00*46

Out:       $GPZDA,042149,06,03,2015,07,00*46

UDP In:    $GPGGA,042150,4905.2884,N,12332.1309,W,2,09,0.80,5,M,,,1,0304*1A

Out:       $GPGGA,042150,4905.2884,N,12332.1309,W,2,09,0.80,5,M,,,1,0304*1A

UDP In:    $SDDBS,,,0314.8,M,,*1F

Out:       $SDDBS,,,0314.8,M,,*1F

UDP In:    $GPGLL,4905.2884,N,12332.1309,W,042150,A*3E

Out:       $GPGLL,4905.2884,N,12332.1309,W,042150,A*3E

UDP In:    $GPRMC,042150,A,4905.2884,N,12332.1309,W,11.1,324,060315,17,E*61

Out:       $GPRMC,042150,A,4905.2884,N,12332.1309,W,11.1,324,060315,17,E*61

UDP In:    $GPVTG,324,T,307,M,11.1,N,20.5,K*49

Out:       $GPVTG,324,T,307,M,11.1,N,20.5,K*49

UDP In:    $GPZDA,042150,06,03,2015,07,00*4E

Out:       $GPZDA,042150,06,03,2015,07,00*4E

UDP In:    $GPGGA,042151,4905.2909,N,12332.1336,W,2,09,0.80,5,M,,,1,0304*13

Out:       $GPGGA,042151,4905.2909,N,12332.1336,W,2,09,0.80,5,M,,,1,0304*13

UDP In:    $GPGLL,4905.2909,N,12332.1336,W,042151,A*37

Out:       $GPGLL,4905.2909,N,12332.1336,W,042151,A*37

UDP In:    $GPRMC,042151,A,4905.2909,N,12332.1336,W,11.1,324,060315,17,E*68

Out:       $GPRMC,042151,A,4905.2909,N,12332.1336,W,11.1,324,060315,17,E*68

UDP In:    $GPVTG,324,T,307,M,11.1,N,20.5,K*49

Out:       $GPVTG,324,T,307,M,11.1,N,20.5,K*49

UDP In:    $GPZDA,042151,06,03,2015,07,00*4F

Out:       $GPZDA,042151,06,03,2015,07,00*4F

UDP In:    $GPGGA,042152,4905.2934,N,12332.1363,W,2,09,0.80,5,M,,,2,0304*1D

Out:       $GPGGA,042152,4905.2934,N,12332.1363,W,2,09,0.80,5,M,,,2,0304*1D

UDP In:    $GPGLL,4905.2934,N,12332.1363,W,042152,A*3A

Out:       $GPGLL,4905.2934,N,12332.1363,W,042152,A*3A

UDP In:    $GPRMC,042152,A,4905.2934,N,12332.1363,W,11.1,324,060315,17,E*65

Out:       $GPRMC,042152,A,4905.2934,N,12332.1363,W,11.1,324,060315,17,E*65

UDP In:    $GPVTG,324,T,307,M,11.1,N,20.5,K*49

Out:       $GPVTG,324,T,307,M,11.1,N,20.5,K*49

UDP In:    $GPZDA,042146,06,03,2015,07,00*49

Out:       $GPZDA,042146,06,03,2015,07,00*49

UDP In:    $GPGGA,042147,4905.2809,N,12332.1227,W,2,09,0.80,5,M,,,1,0304*14

Out:       $GPGGA,042147,4905.2809,N,12332.1227,W,2,09,0.80,5,M,,,1,0304*14

UDP In:    $GPGLL,4905.2809,N,12332.1227,W,042147,A*30

Out:       $GPGLL,4905.2809,N,12332.1227,W,042147,A*30

UDP In:    $GPRMC,042147,A,4905.2809,N,12332.1227,W,11.1,324,060315,17,E*6F

Out:       $GPRMC,042147,A,4905.2809,N,12332.1227,W,11.1,324,060315,17,E*6F

UDP In:    $GPVTG,324,T,307,M,11.1,N,20.5,K*49

Out:       $GPVTG,324,T,307,M,11.1,N,20.5,K*49

UDP In:    $GPZDA,042147,06,03,2015,07,00*48

Out:       $GPZDA,042147,06,03,2015,07,00*48

UDP In:    $GPGGA,042148,4905.2834,N,12332.1254,W,2,09,0.80,5,M,,,1,0304*11

Out:       $GPGGA,042148,4905.2834,N,12332.1254,W,2,09,0.80,5,M,,,1,0304*11

UDP In:    $GPGLL,4905.2834,N,12332.1254,W,042148,A*35

Out:       $GPGLL,4905.2834,N,12332.1254,W,042148,A*35

UDP In:    $GPRMC,042148,A,4905.2834,N,12332.1254,W,11.1,324,060315,17,E*6A

Out:       $GPRMC,042148,A,4905.2834,N,12332.1254,W,11.1,324,060315,17,E*6A

UDP In:    $GPVTG,324,T,307,M,11.1,N,20.5,K*49

Out:       $GPVTG,324,T,307,M,11.1,N,20.5,K*49

UDP In:    $GPZDA,042148,06,03,2015,07,00*47

Out:       $GPZDA,042148,06,03,2015,07,00*47

UDP In:    $GPGGA,042149,4905.2859,N,12332.1282,W,2,09,0.80,5,M,,,1,0304*10

Out:       $GPGGA,042149,4905.2859,N,12332.1282,W,2,09,0.80,5,M,,,1,0304*10

UDP In:    $GPGLL,4905.2859,N,12332.1282,W,042149,A*34

Out:       $GPGLL,4905.2859,N,12332.1282,W,042149,A*34

UDP In:    $GPRMC,042149,A,4905.2859,N,12332.1282,W,11.1,324,060315,17,E*6B

Out:       $GPRMC,042149,A,4905.2859,N,12332.1282,W,11.1,324,060315,17,E*6B

UDP In:    $GPVTG,324,T,307,M,11.1,N,20.5,K*49

Out:       $GPVTG,324,T,307,M,11.1,N,20.5,K*49

UDP In:    $GPZDA,042149,06,03,2015,07,00*46

Out:       $GPZDA,042149,06,03,2015,07,00*46

UDP In:    $GPGGA,042150,4905.2884,N,12332.1309,W,2,09,0.80,5,M,,,1,0304*1A

Out:       $GPGGA,042150,4905.2884,N,12332.1309,W,2,09,0.80,5,M,,,1,0304*1A

UDP In:    $GPGLL,4905.2884,N,12332.1309,W,042150,A*3E

Out:       $GPGLL,4905.2884,N,12332.1309,W,042150,A*3E

UDP In:    $GPRMC,042150,A,4905.2884,N,12332.1309,W,11.1,324,060315,17,E*61

Out:       $GPRMC,042150,A,4905.2884,N,12332.1309,W,11.1,324,060315,17,E*61

UDP In:    $GPVTG,324,T,307,M,11.1,N,20.5,K*49

Out:       $GPVTG,324,T,307,M,11.1,N,20.5,K*49

UDP In:    $GPZDA,042150,06,03,2015,07,00*4E

Out:       $GPZDA,042150,06,03,2015,07,00*4E

UDP In:    $GPGGA,042151,4905.2909,N,12332.1336,W,2,09,0.80,5,M,,,1,0304*13

Out:       $GPGGA,042151,4905.2909,N,12332.1336,W,2,09,0.80,5,M,,,1,0304*13

UDP In:    $GPGLL,4905.2909,N,12332.1336,W,042151,A*37

Out:       $GPGLL,4905.2909,N,12332.1336,W,042151,A*37

UDP In:    $GPRMC,042151,A,4905.2909,N,12332.1336,W,11.1,324,060315,17,E*68

Out:       $GPRMC,042151,A,4905.2909,N,12332.1336,W,11.1,324,060315,17,E*68

UDP In:    $GPVTG,324,T,307,M,11.1,N,20.5,K*49

Out:       $GPVTG,324,T,307,M,11.1,N,20.5,K*49

UDP In:    $GPZDA,042151,06,03,2015,07,00*4F

Out:       $GPZDA,042151,06,03,2015,07,00*4F

UDP In:    $GPGGA,042152,4905.2934,N,12332.1363,W,2,09,0.80,5,M,,,2,0304*1D

Out:       $GPGGA,042152,4905.2934,N,12332.1363,W,2,09,0.80,5,M,,,2,0304*1D

UDP In:    $GPGLL,4905.2934,N,12332.1363,W,042152,A*3A

Out:       $GPGLL,4905.2934,N,12332.1363,W,042152,A*3A

UDP In:    $GPRMC,042152,A,4905.2934,N,12332.1363,W,11.1,324,060315,17,E*65

Out:       $GPRMC,042152,A,4905.2934,N,12332.1363,W,11.1,324,060315,17,E*65

UDP In:    $GPVTG,324,T,307,M,11.1,N,20.5,K*49

Out:       $GPVTG,324,T,307,M,11.1,N,20.5,K*49

UDP In:    $GPZDA,042146,06,03,2015,07,00*49

Out:       $GPZDA,042146,06,03,2015,07,00*49

UDP In:    $GPGGA,042147,4905.2809,N,12332.1227,W,2,09,0.80,5,M,,,1,0304*14

Out:       $GPGGA,042147,4905.2809,N,12332.1227,W,2,09,0.80,5,M,,,1,0304*14

UDP In:    $GPGLL,4905.2809,N,12332.1227,W,042147,A*30

Out:       $GPGLL,4905.2809,N,12332.1227,W,042147,A*30

UDP In:    $GPRMC,042147,A,4905.2809,N,12332.1227,W,11.1,324,060315,17,E*6F

Out:       $GPRMC,042147,A,4905.2809,N,12332.1227,W,11.1,324,060315,17,E*6F

UDP In:    $GPVTG,324,T,307,M,11.1,N,20.5,K*49

Out:       $GPVTG,324,T,307,M,11.1,N,20.5,K*49

UDP In:    $GPZDA,042147,06,03,2015,07,00*48

Out:       $GPZDA,042147,06,03,2015,07,00*48

UDP In:    $GPGGA,042148,4905.2834,N,12332.1254,W,2,09,0.80,5,M,,,1,0304*11

Out:       $GPGGA,042148,4905.2834,N,12332.1254,W,2,09,0.80,5,M,,,1,0304*11

UDP In:    $GPGLL,4905.2834,N,12332.1254,W,042148,A*35

Out:       $GPGLL,4905.2834,N,12332.1254,W,042148,A*35

UDP In:    $GPRMC,042148,A,4905.2834,N,12332.1254,W,11.1,324,060315,17,E*6A

Out:       $GPRMC,042148,A,4905.2834,N,12332.1254,W,11.1,324,060315,17,E*6A

UDP In:    $GPVTG,324,T,307,M,11.1,N,20.5,K*49

Out:       $GPVTG,324,T,307,M,11.1,N,20.5,K*49

UDP In:    $GPZDA,042148,06,03,2015,07,00*47

Out:       $GPZDA,042148,06,03,2015,07,00*47

UDP In:    $GPGGA,042149,4905.2859,N,12332.1282,W,2,09,0.80,5,M,,,1,0304*10

Out:       $GPGGA,042149,4905.2859,N,12332.1282,W,2,09,0.80,5,M,,,1,0304*10

UDP In:    $GPGLL,4905.2859,N,12332.1282,W,042149,A*34

Out:       $GPGLL,4905.2859,N,12332.1282,W,042149,A*34

UDP In:    $GPRMC,042149,A,4905.2859,N,12332.1282,W,11.1,324,060315,17,E*6B

Out:       $GPRMC,042149,A,4905.2859,N,12332.1282,W,11.1,324,060315,17,E*6B

UDP In:    $GPVTG,324,T,307,M,11.1,N,20.5,K*49

Out:       $GPVTG,324,T,307,M,11.1,N,20.5,K*49

UDP In:    $GPZDA,042149,06,03,2015,07,00*46

Out:       $GPZDA,042149,06,03,2015,07,00*46

UDP In:    $GPGGA,042150,4905.2884,N,12332.1309,W,2,09,0.80,5,M,,,1,0304*1A

Out:       $GPGGA,042150,4905.2884,N,12332.1309,W,2,09,0.80,5,M,,,1,0304*1A

UDP In:    $GPGLL,4905.2884,N,12332.1309,W,042150,A*3E

Out:       $GPGLL,4905.2884,N,12332.1309,W,042150,A*3E

UDP In:    $GPRMC,042150,A,4905.2884,N,12332.1309,W,11.1,324,060315,17,E*61

Out:       $GPRMC,042150,A,4905.2884,N,12332.1309,W,11.1,324,060315,17,E*61

