2022-03-02 16:44:11--8,W,,,17.2,281,00.1,5,004412,5,1,1,-0.0,0.0
2022-03-02 16:44:12--$GPDTM,W84,,0000.0000,N,00000.0000,E,,W84*71
$GPGGA,004412,4839.2125,N,12327.1408,W,2,08,01.0,17.2,M,-18.2,M,05.0,0131*69
$GPGLL,4839.21,N,12327.14,W,004412,A,D*56
$GPRMB,V,,,,,,,,,,,,,D*58
$GPRMC,004412,A,4839.212,N,12327.141,W,00.1,283,030322,011.8,E,D*27
$GPVTG,283,T,272,M,00.1,N,00.1,K,D*28
$GPZDA,004412,03,03,2022,08,00*41
$GPZTG,,,*72
$PMVXG,412,004413,0,0,4839.2125,N,12327.1408,W,,,17.2,283,00.1,5,004413,5,1,1,-0.0,0.0
2022-03-02 16:44:13--$GPDTM,W84,,0000.0000,N,00000.0000,E,,W84*71
$GPGGA,004413,4839.2125,N,12327.1407,W,2,08,01.0,17.2,M,-18.2,M,06.0,0131*64
$GPGLL,4839.21,N,12327.14,W,004413,A,D*57
$GPRMB,V,,,,,,,,,,,,,D*58
$GPRMC,004413,A,4839.212,N,12327.141,W,00.0,188,030322,011.8,E,D*2F
$GPVTG,188,T,176,M,00.0,N,00.0,K,D*27
$GPZDA,004413,03,03,2022,08,00*40
$GPZTG,,,*72
$PMVXG,412,004414,0,0,4839.2125,N,12327.1407,W,,,17.2,188,00.0,5,004414,5,1,1,0.0,-0.0
2022-03-02 16:44:14--$GPDTM,W84,,0000.0000,N,00000.0000,E,,W84*71
$GPGGA,004414,4839.2125,N,12327.1408,W,2,08,01.0,17.2,M,-18.2,M,07.0,0131*6D
$GPGLL,4839.21,N,12327.14,W,004414,A,D*50
$GPRMB,V,,,,,,,,,,,,,D*58
$GPRMC,004414,A,4839.212,N,12327.141,W,00.1,032,030322,011.8,E,D*29
$GPVTG,032,T,020,M,00.1,N,00.2,K,D*26
$GPZDA,004414,03,03,2022,08,00*47
$GPZTG,,,*72
$PMVXG,412,004415,0,0,4839.2125,N,12327.1408,W,,,17.2,032,00.1,5,004415,5,1,1,0.0,0.1
2022-03-02 16:44:15--$GPDTM,W84,,0000.0000,N,00000.0000,E,,W84*71
$GPGGA,004415,4839.2125,N,12327.1408,W,2,08,01.0,17.2,M,-18.2,M,07.0,0131*6C
$GPGLL,4839.21,N,12327.14,W,004415,A,D*51
$GPRMB,V,,,,,,,,,,,,,D*58
$GPRMC,004415,A,4839.212,N,12327.141,W,00.1,026,030322,011.8,E,D*2D
$GPVTG,026,T,014,M,00.1,N,00.3,K,D*25
$GPZDA,004415,03,03,2022,08,00*46
$GPZTG,,,*72
$PMVXG,412,004416,0,0,4839.2125,N,12327.1408,W,,,17.2,026,00.1,5,004416,5,1,1,0.0,0.1
2022-03-02 16:44:16--$GPDTM,W84,,0000.0000,N,00000.0000,E,,W84*71
$GPGGA,004416,4839.2125,N,12327.1408,W,2,08,01.0,17.2,M,-18.2,M,07.0,0131*6F
$GPGLL,4839.21,N,12327.14,W,004416,A,D*52
$GPRMB,V,,,,,,,,,,,,,D*58
$GPRMC,004416,A,4839.212,N,12327.141,W,00.1,024,030322,011.8,E,D*2C
$GPVTG,024,T,012,M,00.1,N,00.3,K,D*21
$GPZDA,004416,03,03,2022,08,00*45
$GPZTG,,,*72
$PMVXG,412,004417,0,0,4839.2125,N,12327.1408,W,,,17.2,024,00.1,5,004417,5,1,1,0.0,0.1
2022-03-02 16:44:17--$GPDTM,W84,,0000.0000,N,00000.0000,E,,W84*71
$GPGGA,004417,4839.2125,N,12327.1408,W,2,08,01.0,17.2,M,-18.2,M,04.0,0131*6D
$GPGLL,4839.21,N,12327.14,W,004417,A,D*53
$GPRMB,V,,,,,,,,,,,,,D*58
$GPRMC,004417,A,4839.212,N,12327.141,W,00.1,004,030322,011.8,E,D*2F
$GPVTG,004,T,352,M,00.1,N,00.3,K,D*24
$GPZDA,004417,03,03,2022,08,00*44
$GPZTG,,,*72
$PMVXG,412,004418,0,0,4839.2125,N,12327.1408,W,,,17.2,004,00.1,5,004418,5,1,1,-0.0,0.1
2022-03-02 16:44:18--$GPDTM,W84,,0000.0000,N,00000.0000,E,,W84*71
$GPGGA,004418,4839.2125,N,12327.1408,W,2,08,01.0,17.2,M,-18.2,M,05.0,0131*63
$GPGLL,4839.21,N,12327.14,W,004418,A,D*5C
$GPRMB,V,,,,,,,,,,,,,D*58
$GPRMC,004418,A,4839.212,N,12327.141,W,00.2,354,030322,011.8,E,D*25
$GPVTG,354,T,343,M,00.2,N,00.3,K,D*21
$GPZDA,004418,03,03,2022,08,00*4B
$GPZTG,,,*72
$PMVXG,412,004419,0,0,4839.2125,N,12327.1408,W,,,17.2,354,00.2,5,004419,5,1,1,-0.0,0.1
2022-03-02 16:44:19--$GPDTM,W84,,0000.0000,N,00000.0000,E,,W84*71
$GPGGA,004419,4839.2125,N,12327.1408,W,2,08,01.0,17.2,M,-18.2,M,06.0,0131*61
$GPGLL,4839.21,N,12327.14,W,004419,A,D*5D
$GPRMB,V,,,,,,,,,,,,,D*58
$GPRMC,004419,A,4839.212,N,12327.141,W,00.0,029,030322,011.8,E,D*2F
$GPVTG,029,T,018,M,00.0,N,00.1,K,D*25
$GPZDA,004419,03,03,2022,08,00*4A
$GPZTG,,,*72
$PMVXG,412,004420,0,0,4839.2125,N,12327.1408,W,,,17.2,029,00.0,5,004420,5,1,1,0.0,-0.0
2022-03-02 16:44:20--$GPDTM,W84,,0000.0000,N,00000.0000,E,,W84*71
$GPGGA,004420,4839.2125,N,12327.1408,W,2,08,01.0,17.2,M,-18.2,M,07.0,0131*6A
$GPGLL,4839.21,N,12327.14,W,004420,A,D*57
$GPRMB,V,,,,,,,,,,,,,D*58
$GPRMC,004420,A,4839.212,N,12327.141,W,00.0,259,030322,011.8,E,D*20
$GPVTG,259,T,247,M,00.0,N,00.0,K,D*29
$GPZDA,004420,03,03,2022,08,00*40
$GPZTG,,,*72
$PMVXG,412,004421,0,0,4839.2125,N,12327.1408,W,,,17.2,259,00.0,5,004421,5,1,1,-0.0,0.0
2022-03-02 16:44:21--$GPDTM,W84,,0000.0000,N,00000.0000,E,,W84*71
$GPGGA,004421,4839.2125,N,12327.1408,W,2,08,01.0,17.2,M,-18.2,M,07.0,0131*6B
$GPGLL,4839.21,N,12327.14,W,004421,A,D*56
$GPRMB,V,,,,,,,,,,,,,D*58
$GPRMC,004421,A,4839.212,N,12327.141,W,00.0,260,030322,011.8,E,D*2B
$GPVTG,260,T,249,M,00.0,N,00.1,K,D*2C
$GPZDA,004421,03,03,2022,08,00*41
$GPZTG,,,*72
$PMVXG,412,004422,0,0,4839.2125,N,12327.1408,W,,,17.2,260,00.0,5,004422,5,1,1,-0.0,0.0
2022-03-02 16:44:22--$GPDTM,W84,,0000.0000,N,00000.0000,E,,W84*71
$GPGGA,004422,4839.2125,N,12327.1408,W,2,08,01.0,17.2,M,-18.2,M,07.0,0131*68
$GPGLL,4839.21,N,12327.14,W,004422,A,D*55
$GPRMB,V,,,,,,,,,,,,,D*58
$GPRMC,004422,A,4839.212,N,12327.141,W,00.1,352,030322,011.8,E,D*29
$GPVTG,352,T,341,M,00.1,N,00.2,K,D*27
$GPZDA,004422,03,03,2022,08,00*42
$GPZTG,,,*72
$PMVXG,412,004423,0,0,4839.2125,N,12327.1408,W,,,17.2,352,00.1,5,004423,5,1,1,0.0,0.1
2022-03-02 16:44:23--$GPDTM,W84,,0000.0000,N,00000.0000,E,,W84*71
$GPGGA,004423,4839.2125,N,12327.1408,W,2,08,01.0,17.2,M,-18.2,M,04.0,0131*6A
$GPGLL,4839.21,N,12327.14,W,004423,A,D*54
$GPRMB,V,,,,,,,,,,,,,D*58
$GPRMC,004423,A,4839.212,N,12327.141,W,00.2,001,030322,011.8,E,D*2E
$GPVTG,001,T,349,M,00.2,N,00.3,K,D*28
$GPZDA,004423,03,03,2022,08,00*43
$GPZTG,,,*72
$PMVXG,412,004424,0,0,4839.2125,N,12327.1408,W,,,17.2,001,00.2,5,004424,5,1,1,0.0,0.1
2022-03-02 16:44:24--$GPDTM,W84,,0000.0000,N,00000.0000,E,,W84*71
$GPGGA,004424,4839.2125,N,12327.1408,W,2,08,01.0,17.2,M,-18.2,M,05.0,0131*6C
$GPGLL,4839.21,N,12327.14,W,004424,A,D*53
$GPRMB,V,,,,,,,,,,,,,D*58
$GPRMC,004424,A,4839.212,N,12327.141,W,00.1,008,030322,011.8,E,D*23
$GPVTG,008,T,357,M,00.1,N,00.1,K,D*2F
$GPZDA,004424,03,03,2022,08,00*44
$GPZTG,,,*72
$PMVXG,412,004425,0,0,4839.2125,N,12327.1408,W,,,17.2,008,00.1,5,004425,5,1,1,0.0,0.0
2022-03-02 16:44:25--$GPDTM,W84,,0000.0000,N,00000.0000,E,,W84*71
$GPGGA,004425,4839.2125,N,12327.1408,W,2,08,01.0,17.2,M,-18.2,M,06.0,0131*6E
$GPGLL,4839.21,N,12327.14,W,004425,A,D*52
$GPRMB,V,,,,,,,,,,,,,D*58
$GPRMC,004425,A,4839.212,N,12327.141,W,00.0,054,030322,011.8,E,D*2A
$GPVTG,054,T,042,M,00.0,N,00.0,K,D*21
$GPZDA,004425,03,03,2022,08,00*45
$GPZTG,,,*72
$PMVXG,412,004426,0,0,4839.2125,N,12327.1408,W,,,17.2,054,00.0,5,004426,5,1,1,0.0,0.0
2022-03-02 16:44:26--$GPDTM,W84,,0000.0000,N,00000.0000,E,,W84*71
$GPGGA,004426,4839.2125,N,12327.1408,W,2,08,01.0,17.2,M,-18.2,M,07.0,0131*6C
$GPGLL,4839.21,N,12327.14,W,004426,A,D*51
$GPRMB,V,,,,,,,,,,,,,D*58
$GPRMC,004426,A,4839.212,N,12327.141,W,00.0,114,030322,011.8,E,D*2C
$GPVTG,114,T,102,M,00.0,N,00.0,K,D*21
$GPZDA,004426,03,03,2022,08,00*46
$GPZTG,,,*72
$PMVXG,412,004427,0,0,4839.2125,N,12327.1408,W,,,17.2,114,00.0,5,004427,5,1,1,0.0,0.0
2022-03-02 16:44:27--$GPDTM,W84,,0000.0000,N,00000.0000,E,,W84*71
$GPGGA,004427,4839.2125,N,12327.1408,W,2,08,01.0,17.2,M,-18.2,M,07.0,0131*6D
$GPGLL,4839.21,N,12327.14,W,004427,A,D*50
$GPRMB,V,,,,,,,,,,,,,D*58
$GPRMC,004427,A,4839.212,N,12327.141,W,00.0,224,030322,011.8,E,D*2D
$GPVTG,224,T,213,M,00.0,N,00.1,K,D*23
$GPZDA,004427,03,03,2022,08,00*47
$GPZTG,,,*72
$PMVXG,412,004428,0,0,4839.2125,N,12327.1408,W,,,17.2,224,00.0,5,004428,5,1,1,-0.0,-0.0
2022-03-02 16:44:28--$GPDTM,W84,,0000.0000,N,00000.0000,E,,W84*71
$GPGGA,004428,4839.2125,N,12327.1408,W,2,08,01.0,17.2,M,-18.2,M,07.0,0131*62
$GPGLL,4839.21,N,12327.14,W,004428,A,D*5F
$GPRMB,V,,,,,,,,,,,,,D*58
$GPRMC,004428,A,4839.212,N,12327.141,W,00.1,232,030322,011.8,E,D*24
$GPVTG,232,T,220,M,00.1,N,00.1,K,D*25
$GPZDA,004428,03,03,2022,08,00*48
$GPZTG,,,*72
$PMVXG,412,004429,0,0,4839.2125,N,12327.1408,W,,,17.2,232,00.1,5,004429,5,1,1,-0.0,-0.0
2022-03-02 16:44:29--$GPDTM,W84,,0000.0000,N,00000.0000,E,,W84*71
$GPGGA,004429,4839.2125,N,12327.1408,W,2,08,01.0,17.2,M,-18.2,M,04.0,0131*60
$GPGLL,4839.21,N,12327.14,W,004429,A,D*5E
$GPRMB,V,,,,,,,,,,,,,D*58
$GPRMC,004429,A,4839.212,N,12327.141,W,00.1,091,030322,011.8,E,D*2E
$GPVTG,091,T,079,M,00.1,N,00.1,K,D*20
$GPZDA,004429,03,03,2022,08,00*49
$GPZTG,,,*72
$PMVXG,412,004430,0,0,4839.2125,N,12327.1408,W,,,17.2,091,00.1,5,004430,5,1,1,0.1,0.0
2022-03-02 16:44:30--$GPDTM,W84,,0000.0000,N,00000.0000,E,,W84*71
$GPGGA,004430,4839.2125,N,12327.1408,W,2,08,01.0,17.2,M,-18.2,M,05.0,0131*69
$GPGLL,4839.21,N,12327.14,W,004430,A,D*56
$GPRMB,V,,,,,,,,,,,,,D*58
$GPRMC,004430,A,4839.212,N,12327.141,W,00.1,148,030322,011.8,E,D*23
$GPVTG,148,T,136,M,00.1,N,00.2,K,D*2C
$GPZDA,004430,03,03,2022,08,00*41
$GPZTG,,,*72
$PMVXG,412,004431,0,0,4839.2125,N,12327.1408,W,,,17.2,148,00.1,5,004431,5,1,1,0.0,-0.1
2022-03-02 16:44:31--$GPDTM,W84,,0000.0000,N,00000.0000,E,,W84*71
$GPGGA,004431,4839.2125,N,12327.1408,W,2,08,01.0,17.2,M,-18.2,M,06.0,0131*6B
$GPGLL,4839.21,N,12327.14,W,004431,A,D*57
$GPRMB,V,,,,,,,,,,,,,D*58
$GPRMC,004431,A,4839.212,N,12327.141,W,00.1,170,030322,011.8,E,D*29
$GPVTG,170,T,158,M,00.1,N,00.2,K,D*2F
$GPZDA,004431,03,03,2022,08,00*40
$GPZTG,,,*72
$PMVXG,412,004432,0,0,4839.2125,N,12327.1408,W,,,17.2,170,00.1,5,004432,5,1,1,0.0,-0.1
2022-03-02 16:44:32--$GPDTM,W84,,0000.0000,N,00000.0000,E,,W84*71
$GPGGA,004432,4839.2125,N,12327.1408,W,2,08,01.0,17.2,M,-18.2,M,07.0,0131*69
$GPGLL,4839.21,N,12327.14,W,004432,A,D*54
$GPRMB,V,,,,,,,,,,,,,D*58
$GPRMC,004432,A,4839.212,N,12327.141,W,00.1,175,030322,011.8,E,D*2F
$GPVTG,175,T,163,M,00.1,N,00.3,K,D*23
$GPZDA,004432,03,03,2022,08,00*43
$GPZTG,,,*72
$PMVXG,412,004433,0,0,4839.2125,N,12327.1408,W,,,17.2,175,00.1,5,004433,5,1,1,0.0,-0.1
2022-03-02 16:44:33--$GPDTM,W84,,0000.0000,N,00000.0000,E,,W84*71
$GPGGA,004433,4839.2125,N,12327.1408,W,2,08,01.0,17.2,M,-18.2,M,07.0,0131*68
$GPGLL,4839.21,N,12327.14,W,004433,A,D*55
$GPRMB,V,,,,,,,,,,,,,D*58
$GPRMC,004433,A,4839.212,N,12327.141,W,00.1,189,030322,011.8,E,D*2D
$GPVTG,189,T,177,M,00.1,N,00.1,K,D*27
$GPZDA,004433,03,03,2022,08,00*42
$GPZTG,,,*72
$PMVXG,412,004434,0,0,4839.2125,N,12327.1408,W,,,17.2,189,00.1,5,004434,5,1,1,-0.0,-0.0
2022-03-02 16:44:34--$GPDTM,W84,,0000.0000,N,00000.0000,E,,W84*71
$GPGGA,004434,4839.2125,N,12327.1408,W,2,08,01.0,17.2,M,-18.2,M,07.0,0131*6F
$GPGLL,4839.21,N,12327.14,W,004434,A,D*52
$GPRMB,V,,,,,,,,,,,,,D*58
$GPRMC,004434,A,4839.212,N,12327.141,W,00.0,041,030322,011.8,E,D*2E
$GPVTG,041,T,029,M,00.0,N,00.1,K,D*29
$GPZDA,004434,03,03,2022,08,00*45
$GPZTG,,,*72
$PMVXG,412,004435,0,0,4839.2125,N,12327.1408,W,,,17.2,041,00.0,5,004435,5,1,1,0.0,0.0
