2022-03-02 16:39:46--,V,,,,,,,,,,,,,D*58
$GPRMC,003946,A,4839.212,N,12327.141,W,00.0,083,030322,011.8,E,D*2F
$GPVTG,083,T,071,M,00.0,N,00.1,K,D*2A
$GPZDA,003946,03,03,2022,08,00*4A
$GPZTG,,,*72
$PMVXG,412,003947,0,0,4839.2124,N,12327.1408,W,,,17.0,083,00.0,5,003947,5,1,1,0.0,0.0
2022-03-02 16:39:47--$GPDTM,W84,,0000.0000,N,00000.0000,E,,W84*71
$GPGGA,003947,4839.2124,N,12327.1408,W,2,08,01.0,17.0,M,-18.2,M,04.0,0131*61
$GPGLL,4839.21,N,12327.14,W,003947,A,D*5C
$GPRMB,V,,,,,,,,,,,,,D*58
$GPRMC,003947,A,4839.212,N,12327.141,W,00.1,073,030322,011.8,E,D*20
$GPVTG,073,T,062,M,00.1,N,00.2,K,D*25
$GPZDA,003947,03,03,2022,08,00*4B
$GPZTG,,,*72
$PMVXG,412,003948,0,0,4839.2124,N,12327.1408,W,,,17.0,073,00.1,5,003948,5,1,1,0.0,0.0
2022-03-02 16:39:48--$GPDTM,W84,,0000.0000,N,00000.0000,E,,W84*71
$GPGGA,003948,4839.2124,N,12327.1408,W,2,08,01.0,17.0,M,-18.2,M,05.0,0131*6F
$GPGLL,4839.21,N,12327.14,W,003948,A,D*53
$GPRMB,V,,,,,,,,,,,,,D*58
$GPRMC,003948,A,4839.212,N,12327.141,W,00.1,130,030322,011.8,E,D*29
$GPVTG,130,T,118,M,00.1,N,00.1,K,D*2C
$GPZDA,003948,03,03,2022,08,00*44
$GPZTG,,,*72
$PMVXG,412,003949,0,0,4839.2124,N,12327.1408,W,,,17.0,130,00.1,5,003949,5,1,1,0.0,-0.0
2022-03-02 16:39:49--$GPDTM,W84,,0000.0000,N,00000.0000,E,,W84*71
$GPGGA,003949,4839.2124,N,12327.1408,W,2,08,01.0,17.0,M,-18.2,M,06.0,0131*6D
$GPGLL,4839.21,N,12327.14,W,003949,A,D*52
$GPRMB,V,,,,,,,,,,,,,D*58
$GPRMC,003949,A,4839.212,N,12327.141,W,00.1,162,030322,011.8,E,D*2F
$GPVTG,162,T,150,M,00.1,N,00.1,K,D*27
$GPZDA,003949,03,03,2022,08,00*45
$GPZTG,,,*72
$PMVXG,412,003950,0,0,4839.2124,N,12327.1408,W,,,17.0,162,00.1,5,003950,5,1,1,0.0,-0.0
2022-03-02 16:39:50--$GPDTM,W84,,0000.0000,N,00000.0000,E,,W84*71
$GPGGA,003950,4839.2124,N,12327.1408,W,2,08,01.0,17.0,M,-18.2,M,07.0,0131*64
$GPGLL,4839.21,N,12327.14,W,003950,A,D*5A
$GPRMB,V,,,,,,,,,,,,,D*58
$GPRMC,003950,A,4839.212,N,12327.141,W,00.1,098,030322,011.8,E,D*23
$GPVTG,098,T,086,M,00.1,N,00.1,K,D*29
$GPZDA,003950,03,03,2022,08,00*4D
$GPZTG,,,*72
$PMVXG,412,003951,0,0,4839.2124,N,12327.1408,W,,,17.0,098,00.1,5,003951,5,1,1,0.0,0.0
2022-03-02 16:39:51--$GPDTM,W84,,0000.0000,N,00000.0000,E,,W84*71
$GPGGA,003951,4839.2124,N,12327.1408,W,2,08,01.0,17.0,M,-18.2,M,07.0,0131*65
$GPGLL,4839.21,N,12327.14,W,003951,A,D*5B
$GPRMB,V,,,,,,,,,,,,,D*58
$GPRMC,003951,A,4839.212,N,12327.141,W,00.1,073,030322,011.8,E,D*27
$GPVTG,073,T,061,M,00.1,N,00.2,K,D*26
$GPZDA,003951,03,03,2022,08,00*4C
$GPZTG,,,*72
$PMVXG,412,003952,0,0,4839.2124,N,12327.1408,W,,,17.0,073,00.1,5,003952,5,1,1,0.0,0.0
2022-03-02 16:39:52--$GPDTM,W84,,0000.0000,N,00000.0000,E,,W84*71
$GPGGA,003952,4839.2124,N,12327.1408,W,2,08,01.0,17.0,M,-18.2,M,07.0,0131*66
$GPGLL,4839.21,N,12327.14,W,003952,A,D*58
$GPRMB,V,,,,,,,,,,,,,D*58
$GPRMC,003952,A,4839.212,N,12327.141,W,00.1,049,030322,011.8,E,D*2D
$GPVTG,049,T,037,M,00.1,N,00.2,K,D*2C
$GPZDA,003952,03,03,2022,08,00*4F
$GPZTG,,,*72
$PMVXG,412,003953,0,0,4839.2124,N,12327.1408,W,,,17.0,049,00.1,5,003953,5,1,1,0.0,0.0
2022-03-02 16:39:53--$GPDTM,W84,,0000.0000,N,00000.0000,E,,W84*71
$GPGGA,003953,4839.2124,N,12327.1408,W,2,08,01.0,17.0,M,-18.2,M,04.0,0131*64
$GPGLL,4839.21,N,12327.14,W,003953,A,D*59
$GPRMB,V,,,,,,,,,,,,,D*58
$GPRMC,003953,A,4839.212,N,12327.141,W,00.1,039,030322,011.8,E,D*2B
$GPVTG,039,T,027,M,00.1,N,00.2,K,D*2A
$GPZDA,003953,03,03,2022,08,00*4E
$GPZTG,,,*72
$PMVXG,412,003954,0,0,4839.2124,N,12327.1408,W,,,17.0,039,00.1,5,003954,5,1,1,0.0,0.0
2022-03-02 16:39:54--$GPDTM,W84,,0000.0000,N,00000.0000,E,,W84*71
$GPGGA,003954,4839.2124,N,12327.1408,W,2,08,01.0,17.0,M,-18.2,M,05.0,0131*62
$GPGLL,4839.21,N,12327.14,W,003954,A,D*5E
$GPRMB,V,,,,,,,,,,,,,D*58
$GPRMC,003954,A,4839.212,N,12327.141,W,00.1,307,030322,011.8,E,D*22
$GPVTG,307,T,296,M,00.1,N,00.2,K,D*2C
$GPZDA,003954,03,03,2022,08,00*49
$GPZTG,,,*72
$PMVXG,412,003955,0,0,4839.2124,N,12327.1408,W,,,17.0,307,00.1,5,003955,5,1,1,-0.1,0.0
2022-03-02 16:39:55--$GPDTM,W84,,0000.0000,N,00000.0000,E,,W84*71
$GPGGA,003955,4839.2124,N,12327.1408,W,2,08,01.0,17.0,M,-18.2,M,06.0,0131*60
$GPGLL,4839.21,N,12327.14,W,003955,A,D*5F
$GPRMB,V,,,,,,,,,,,,,D*58
$GPRMC,003955,A,4839.212,N,12327.141,W,00.1,284,030322,011.8,E,D*29
$GPVTG,284,T,272,M,00.1,N,00.2,K,D*2C
$GPZDA,003955,03,03,2022,08,00*48
$GPZTG,,,*72
$PMVXG,412,003956,0,0,4839.2124,N,12327.1408,W,,,17.0,284,00.1,5,003956,5,1,1,-0.1,0.0
2022-03-02 16:39:56--$GPDTM,W84,,0000.0000,N,00000.0000,E,,W84*71
$GPGGA,003956,4839.2124,N,12327.1408,W,2,08,01.0,17.0,M,-18.2,M,07.0,0131*62
$GPGLL,4839.21,N,12327.14,W,003956,A,D*5C
$GPRMB,V,,,,,,,,,,,,,D*58
$GPRMC,003956,A,4839.212,N,12327.141,W,00.1,297,030322,011.8,E,D*28
$GPVTG,297,T,286,M,00.1,N,00.1,K,D*26
$GPZDA,003956,03,03,2022,08,00*4B
$GPZTG,,,*72
$PMVXG,412,003957,0,0,4839.2124,N,12327.1408,W,,,17.0,297,00.1,5,003957,5,1,1,-0.0,0.0
2022-03-02 16:39:57--$GPDTM,W84,,0000.0000,N,00000.0000,E,,W84*71
$GPGGA,003957,4839.2124,N,12327.1408,W,2,08,01.0,17.0,M,-18.2,M,07.0,0131*63
$GPGLL,4839.21,N,12327.14,W,003957,A,D*5D
$GPRMB,V,,,,,,,,,,,,,D*58
$GPRMC,003957,A,4839.212,N,12327.141,W,00.1,323,030322,011.8,E,D*27
$GPVTG,323,T,311,M,00.1,N,00.1,K,D*27
$GPZDA,003957,03,03,2022,08,00*4A
$GPZTG,,,*72
$PMVXG,412,003958,0,0,4839.2124,N,12327.1408,W,,,17.0,323,00.1,5,003958,5,1,1,-0.0,0.0
2022-03-02 16:39:58--$GPDTM,W84,,0000.0000,N,00000.0000,E,,W84*71
$GPGGA,003958,4839.2124,N,12327.1408,W,2,08,01.0,17.0,M,-18.2,M,07.0,0131*6C
$GPGLL,4839.21,N,12327.14,W,003958,A,D*52
$GPRMB,V,,,,,,,,,,,,,D*58
$GPRMC,003958,A,4839.212,N,12327.141,W,00.0,060,030322,011.8,E,D*2D
$GPVTG,060,T,048,M,00.0,N,00.1,K,D*2D
$GPZDA,003958,03,03,2022,08,00*45
$GPZTG,,,*72
$PMVXG,412,003959,0,0,4839.2124,N,12327.1408,W,,,17.0,060,00.0,5,003959,5,1,1,0.0,0.0
2022-03-02 16:39:59--$GPDTM,W84,,0000.0000,N,00000.0000,E,,W84*71
$GPGGA,003959,4839.2124,N,12327.1408,W,2,08,01.0,17.0,M,-18.2,M,04.0,0131*6E
$GPGLL,4839.21,N,12327.14,W,003959,A,D*53
$GPRMB,V,,,,,,,,,,,,,D*58
$GPRMC,003959,A,4839.212,N,12327.141,W,00.1,081,030322,011.8,E,D*22
$GPVTG,081,T,070,M,00.1,N,00.1,K,D*28
$GPZDA,003959,03,03,2022,08,00*44
$GPZTG,,,*72
$PMVXG,412,004000,0,0,4839.2124,N,12327.1408,W,,,17.0,081,00.1,5,004000,5,1,1,0.0,0.0
2022-03-02 16:40:00--$GPDTM,W84,,0000.0000,N,00000.0000,E,,W84*71
$GPGGA,004000,4839.2124,N,12327.1408,W,2,08,01.0,17.0,M,-18.2,M,05.0,0131*6D
$GPGLL,4839.21,N,12327.14,W,004000,A,D*51
$GPRMB,V,,,,,,,,,,,,,D*58
$GPRMC,004000,A,4839.212,N,12327.141,W,00.1,019,030322,011.8,E,D*21
$GPVTG,019,T,007,M,00.1,N,00.1,K,D*29
$GPZDA,004000,03,03,2022,08,00*46
$GPZTG,,,*72
$PMVXG,412,004001,0,0,4839.2124,N,12327.1408,W,,,17.0,019,00.1,5,004001,5,1,1,-0.0,0.0
2022-03-02 16:40:01--$GPDTM,W84,,0000.0000,N,00000.0000,E,,W84*71
$GPGGA,004001,4839.2124,N,12327.1408,W,2,08,01.0,17.0,M,-18.2,M,06.0,0131*6F
$GPGLL,4839.21,N,12327.14,W,004001,A,D*50
$GPRMB,V,,,,,,,,,,,,,D*58
$GPRMC,004001,A,4839.212,N,12327.141,W,00.1,351,030322,011.8,E,D*2F
$GPVTG,351,T,339,M,00.1,N,00.1,K,D*28
$GPZDA,004001,03,03,2022,08,00*47
$GPZTG,,,*72
$PMVXG,412,004002,0,0,4839.2124,N,12327.1408,W,,,17.0,351,00.1,5,004002,5,1,1,-0.0,0.0
2022-03-02 16:40:02--$GPDTM,W84,,0000.0000,N,00000.0000,E,,W84*71
$GPGGA,004002,4839.2124,N,12327.1408,W,2,08,01.0,17.0,M,-18.2,M,07.0,0131*6D
$GPGLL,4839.21,N,12327.14,W,004002,A,D*53
$GPRMB,V,,,,,,,,,,,,,D*58
$GPRMC,004002,A,4839.212,N,12327.141,W,00.1,295,030322,011.8,E,D*25
$GPVTG,295,T,283,M,00.1,N,00.1,K,D*21
$GPZDA,004002,03,03,2022,08,00*44
$GPZTG,,,*72
$PMVXG,412,004003,0,0,4839.2124,N,12327.1408,W,,,17.0,295,00.1,5,004003,5,1,1,-0.0,-0.0
2022-03-02 16:40:03--$GPDTM,W84,,0000.0000,N,00000.0000,E,,W84*71
$GPGGA,004003,4839.2124,N,12327.1408,W,2,08,01.0,17.0,M,-18.2,M,07.0,0131*6C
$GPGLL,4839.21,N,12327.14,W,004003,A,D*52
$GPRMB,V,,,,,,,,,,,,,D*58
$GPRMC,004003,A,4839.212,N,12327.141,W,00.1,267,030322,011.8,E,D*29
$GPVTG,267,T,255,M,00.1,N,00.1,K,D*27
$GPZDA,004003,03,03,2022,08,00*45
$GPZTG,,,*72
$PMVXG,412,004004,0,0,4839.2124,N,12327.1408,W,,,17.0,267,00.1,5,004004,5,1,1,-0.0,-0.0
2022-03-02 16:40:04--$GPDTM,W84,,0000.0000,N,00000.0000,E,,W84*71
$GPGGA,004004,4839.2124,N,12327.1408,W,2,08,01.0,17.0,M,-18.2,M,07.0,0131*6B
$GPGLL,4839.21,N,12327.14,W,004004,A,D*55
$GPRMB,V,,,,,,,,,,,,,D*58
$GPRMC,004004,A,4839.212,N,12327.141,W,00.1,227,030322,011.8,E,D*2A
$GPVTG,227,T,215,M,00.1,N,00.1,K,D*27
$GPZDA,004004,03,03,2022,08,00*42
$GPZTG,,,*72
$PMVXG,412,004005,0,0,4839.2124,N,12327.1408,W,,,17.0,227,00.1,5,004005,5,1,1,-0.0,-0.0
2022-03-02 16:40:05--$GPDTM,W84,,0000.0000,N,00000.0000,E,,W84*71
$GPGGA,004005,4839.2124,N,12327.1408,W,2,08,01.0,17.0,M,-18.2,M,04.0,0131*69
$GPGLL,4839.21,N,12327.14,W,004005,A,D*54
$GPRMB,V,,,,,,,,,,,,,D*58
$GPRMC,004005,A,4839.212,N,12327.141,W,00.1,210,030322,011.8,E,D*2F
$GPVTG,210,T,198,M,00.1,N,00.1,K,D*25
$GPZDA,004005,03,03,2022,08,00*43
$GPZTG,,,*72
$PMVXG,412,004006,0,0,4839.2124,N,12327.1408,W,,,17.0,210,00.1,5,004006,5,1,1,-0.0,-0.0
2022-03-02 16:40:06--$GPDTM,W84,,0000.0000,N,00000.0000,E,,W84*71
$GPGGA,004006,4839.2124,N,12327.1408,W,2,08,01.0,17.0,M,-18.2,M,05.0,0131*6B
$GPGLL,4839.21,N,12327.14,W,004006,A,D*57
$GPRMB,V,,,,,,,,,,,,,D*58
$GPRMC,004006,A,4839.212,N,12327.141,W,00.0,333,030322,011.8,E,D*2D
$GPVTG,333,T,321,M,00.0,N,00.1,K,D*24
$GPZDA,004006,03,03,2022,08,00*40
$GPZTG,,,*72
$PMVXG,412,004007,0,0,4839.2124,N,12327.1408,W,,,17.0,333,00.0,5,004007,5,1,1,-0.0,0.0
2022-03-02 16:40:07--$GPDTM,W84,,0000.0000,N,00000.0000,E,,W84*71
$GPGGA,004007,4839.2124,N,12327.1408,W,2,08,01.0,17.0,M,-18.2,M,06.0,0131*69
$GPGLL,4839.21,N,12327.14,W,004007,A,D*56
$GPRMB,V,,,,,,,,,,,,,D*58
$GPRMC,004007,A,4839.212,N,12327.141,W,00.1,350,030322,011.8,E,D*28
$GPVTG,350,T,338,M,00.1,N,00.2,K,D*2B
$GPZDA,004007,03,03,2022,08,00*41
$GPZTG,,,*72
$PMVXG,412,004008,0,0,4839.2124,N,12327.1408,W,,,17.0,350,00.1,5,004008,5,1,1,-0.0,0.0
2022-03-02 16:40:08--$GPDTM,W84,,0000.0000,N,00000.0000,E,,W84*71
$GPGGA,004008,4839.2124,N,12327.1408,W,2,08,01.0,17.0,M,-18.2,M,07.0,0131*67
$GPGLL,4839.21,N,12327.14,W,004008,A,D*59
$GPRMB,V,,,,,,,,,,,,,D*58
$GPRMC,004008,A,4839.212,N,12327.141,W,00.0,328,030322,011.8,E,D*29
$GPVTG,328,T,316,M,00.0,N,00.0,K,D*2B
$GPZDA,004008,03,03,2022,08,00*4E
$GPZTG,,,*72
$PMVXG,412,004009,0,0,4839.2124,N,12327.1408,W,,,17.0,328,00.0,5,004009,5,1,1,-0.0,-0.0
2022-03-02 16:40:09--$GPDTM,W84,,0000.0000,N,00000.0000,E,,W84*71
$GPGGA,004009,4839.2124,N,12327.1408,W,2,08,01.0,17.0,M,-18.2,M,07.0,0131*66
$GPGLL,4839.21,N,12327.14,W,004009,A,D*58
$GPRMB,V,,,,,,,,,,,,,D*58
$GPRMC,004009,A,4839.212,N,12327.141,W,00.0,201,030322,011.8,E,D*22
$GPVTG,201,T,189,M,00.0,N,00.0,K,D*25
$GPZDA,004009,03,03,2022,08,00*4F
$GPZTG,,,*72
$PMVXG,412,004010,0,0,4839.2124,N,12327.1408,W,,,17.0,201,00.0,5,004010,5,1,1,-0.0,-0.0
2022-03-02 16:40:10--$GPDTM,W84,,0000.0000,N,00000.0000,E,,W84*71
$GPGGA,004010,4839.2124,N,12327.1408,W,2,08,01.0,17.0,M,-18.2,M,07.0,0131*6E
$GPGLL,4839.21,N,12327.14,W,004010,A,D*50
$GPRMB,V,,,,,,,,,,,,,D*58
$GPRMC,004010,A,4839.212,N,12327.141,W,00.1,235,030322,011.8,E,D*2C
$GPVTG,235,T,223,M,00.1,N,00.1,K,D*21
$GPZDA,004010,03,03,2022,08,00*47
$GPZTG,,,*72
$PMVXG,412,004011,0,0,4839.2124,N,12327.1408,W,,,17.0,235,00.1,5,004011,5,1,1,-0.0,-0.0
2022-03-02 16:40:11--$GPDTM,W84,,0000.0000,N,00000.0000,E,,W84*71
$GPGGA,004011,4839.2124,N,12327.1408,W,2,08,01.0,17.0,M,-18.2,M,04.0,0131*6C
$GPGLL,4839.21,N,12327.14,W,004011,A,D*51
$GPRMB,V,,,,,,,,,,,,,D*58
$GPRMC,004011,A,4839.212,N,12327.141,W,00.1,243,030322,011.8,E,D*2C
$GPVTG,243,T,231,M,00.1,N,00.2,K,D*20
$GPZDA,004011,03,03,2022,08,00*46
$GPZTG,,,*72
$PMVXG,412,004012,0,0,4839.2124,N,12327.1408,W,,,17.0,243,00.1,5,004012,5,1,1,-0.0,-0.0
2022-03-02 16:40:12--$GPDTM,W84,,0000.0000,N,00000.0000,E,,W84*71
$GPGGA,004012,4839.2124,N,12327.1408,W,2,08,01.0,17.0,M,-18.2,M,05.0,0131*6E
$GPGLL,4839.21,N,12327.14,W,004012,A,D*52
$GPRMB,V,,,,,,,,,,,,,D*58
$GPRMC,004012,A,4839.212,N,12327.141,W,00.1,174,030322,011.8,E,D*28
$GPVTG,174,T,162,M,00.1,N,00.1,K,D*21
$GPZDA,004012,03,03,2022,08,00*45
$GPZTG,,,*72
$PMVXG,412,004013,0,0,4839.2124,N,12327.1408,W,,,17.0,174,00.1,5,004013,5,1,1,0.0,-0.0
2022-03-02 16:40:13--$GPDTM,W84,,0000.0000,N,00000.0000,E,,W84*71
$GPGGA,004013,4839.2124,N,12327.1408,W,2,08,01.0,17.0,M,-18.2,M,06.0,0131*6C
$GPGLL,4839.21,N,12327.14,W,004013,A,D*53
$GPRMB,V,,,,,,,,,,,,,D*58
$GPRMC,004013,A,4839.212,N,12327.141,W,00.1,143,030322,011.8,E,D*2D
$GPVTG,143,T,131,M,00.1,N,00.2,K,D*20
$GPZDA,004013,03,03,2022,08,00*44
$GPZTG,,,*72
$PMVXG,412,004014,0,0,4839.2124,N,12327.1408,W,,,17.0,143,00.1,5,004014,5,1,1,0.0,-0.0
2022-03-02 16:40:14--$GPDTM,W84,,0000.0000,N,00000.0000,E,,W84*71
$GPGGA,004014,4839.2124,N,12327.1408,W,2,08,01.0,17.0,M,-18.2,M,07.0,0131*6A
$GPGLL,4839.21,N,12327.14,W,004014,A,D*54
$GPRMB,V,,,,,,,,,,,,,D*58
$GPRMC,004014,A,4839.212,N,12327.141,W,00.0,253,030322,011.8,E,D*29
$GPVTG,253,T,242,M,00.0,N,00.1,K,D*27
$GPZDA,004014,03,03,2022,08,00*43
$GPZTG,,,*72
$PMVXG,412,004015,0,0,4839.2124,N,12327.1408,W,,,17.0,253,00.0,5,004015,5,1,1,-0.1,0.0
2022-03-02 16:40:15--$GPDTM,W84,,0000.0000,N,00000.0000,E,,W84*71
$GPGGA,004015,4839.2124,N,12327.1408,W,2,08,01.0,17.0,M,-18.2,M,07.0,0131*6B
$GPGLL,4839.21,N,12327.14,W,004015,A,D*55
$GPRMB,V,,,,,,,,,,,,,D*58
$GPRMC,004015,A,4839.212,N,12327.141,W,00.1,281,030322,011.8,E,D*26
$GPVTG,281,T,270,M,00.1,N,00.2,K,D*2B
$GPZDA,004015,03,03,2022,08,00*42
$GPZTG,,,*72
$PMVXG,412,004016,0,0,4839.2124,N,12327.1408,W,,,17.0,281,00.1,5,004016,5,1,1,-0.1,0.0
2022-03-02 16:40:16--$GPDTM,W84,,0000.0000,N,00000.0000,E,,W84*71
$GPGGA,004016,4839.2124,N,12327.1408,W,2,08,01.0,17.0,M,-18.2,M,07.0,0131*68
$GPGLL,4839.21,N,12327.14,W,004016,A,D*56
$GPRMB,V,,,,,,,,,,,,,D*58
$GPRMC,004016,A,4839.212,N,12327.141,W,00.1,306,030322,011.8,E,D*2B
$GPVTG,306,T,294,M,00.1,N,00.1,K,D*2C
$GPZDA,004016,03,03,2022,08,00*41
$GPZTG,,,*72
$PMVXG,412,004017,0,0,4839.2124,N,12327.1408,W,,,17.0,306,00.1,5,004017,5,1,1,-0.0,0.0
2022-03-02 16:40:17--$GPDTM,W84,,0000.0000,N,00000.0000,E,,W84*71
$GPGGA,004017,4839.2124,N,12327.1408,W,2,08,01.0,17.1,M,-18.2,M,04.0,0131*6B
$GPGLL,4839.21,N,12327.14,W,004017,A,D*57
$GPRMB,V,,,,,,,,,,,,,D*58
$GPRMC,004017,A,4839.212,N,12327.141,W,00.0,335,030322,011.8,E,D*2B
$GPVTG,335,T,323,M,00.0,N,00.1,K,D*20
$GPZDA,004017,03,03,2022,08,00*40
$GPZTG,,,*72
$PMVXG,412,004018,0,0,4839.2124,N,12327.1408,W,,,17.1,335,00.0,5,004018,5,1,1,-0.0,0.0
2022-03-02 16:40:18--$GPDTM,W84,,0000.0000,N,00000.0000,E,,W84*71
$GPGGA,004018,4839.2124,N,12327.1408,W,2,08,01.0,17.1,M,-18.2,M,05.0,0131*65
$GPGLL,4839.21,N,12327.14,W,004018,A,D*58
$GPRMB,V,,,,,,,,,,,,,D*58
$GPRMC,004018,A,4839.212,N,12327.141,W,00.0,315,030322,011.8,E,D*26
$GPVTG,315,T,303,M,00.0,N,00.0,K,D*21
$GPZDA,004018,03,03,2022,08,00*4F
$GPZTG,,,*72
$PMVXG,412,004019,0,0,4839.2124,N,12327.1408,W,,,17.1,315,00.0,5,004019,5,1,1,-0.0,0.0
2022-03-02 16:40:19--$GPDTM,W84,,0000.0000,N,00000.0000,E,,W84*71
$GPGGA,004019,4839.2124,N,12327.1408,W,2,08,01.0,17.1,M,-18.2,M,06.0,0131*67
$GPGLL,4839.21,N,12327.14,W,004019,A,D*59
$GPRMB,V,,,,,,,,,,,,,D*58
$GPRMC,004019,A,4839.212,N,12327.141,W,00.0,275,030322,011.8,E,D*20
$GPVTG,275,T,263,M,00.0,N,00.0,K,D*21
$GPZDA,004019,03,03,2022,08,00*4E
$GPZTG,,,*72
$PMVXG,412,004020,0,0,4839.2124,N,12327.1408,W,,,17.1,275,00.0,5,004020,5,1,1,-0.0,0.0
2022-03-02 16:40:20--$GPDTM,W84,,0000.0000,N,00000.0000,E,,W84*71
$GPGGA,004020,4839.2124,N,12327.1408,W,2,08,01.0,17.1,M,-18.2,M,07.0,0131*6C
$GPGLL,4839.21,N,12327.14,W,004020,A,D*53
$GPRMB,V,,,,,,,,,,,,,D*58
$GPRMC,004020,A,4839.212,N,12327.141,W,00.0,260,030322,011.8,E,D*2E
$GPVTG,260,T,249,M,00.0,N,00.1,K,D*2C
$GPZDA,004020,03,03,2022,08,00*44
$GPZTG,,,*72
$PMVXG,412,004021,0,0,4839.2124,N,12327.1408,W,,,17.1,260,00.0,5,004021,5,1,1,-0.0,-0.0
2022-03-02 16:40:21--$GPDTM,W84,,0000.0000,N,00000.0000,E,,W84*71
$GPGGA,004021,4839.2124,N,12327.1408,W,2,08,01.0,17.1,M,-18.2,M,07.0,0131*6D
$GPGLL,4839.21,N,12327.14,W,004021,A,D*52
$GPRMB,V,,,,,,,,,,,,,D*58
$GPRMC,004021,A,4839.212,N,12327.141,W,00.0,260,030322,011.8,E,D*2F
$GPVTG,260,T,248,M,00.0,N,00.1,K,D*2D
$GPZDA,004021,03,03,2022,08,00*45
$GPZTG,,,*72
$PMVXG,412,004022,0,0,4839.2124,N,12327.1408,W,,,17.1,260,00.0,5,004022,5,1,1,-0.0,-0.0
2022-03-02 16:40:22--$GPDTM,W84,,0000.0000,N,00000.0000,E,,W84*71
$GPGGA,004022,4839.2124,N,12327.1408,W,2,08,01.0,17.1,M,-18.2,M,07.0,0131*6E
$GPGLL,4839.21,N,12327.14,W,004022,A,D*51
$GPRMB,V,,,,,,,,,,,,,D*58
$GPRMC,004022,A,4839.212,N,12327.141,W,00.0,011,030322,011.8,E,D*28
$GPVTG,011,T,359,M,00.0,N,00.0,K,D*29
$GPZDA,004022,03,03,2022,08,00*46
$GPZTG,,,*72
$PMVXG,412,004023,0,0,4839.2124,N,12327.1408,W,,,17.1,011,00.0,5,004023,5,1,1,0.0,0.0
2022-03-02 16:40:23--$GPDTM,W84,,0000.0000,N,00000.0000,E,,W84*71
$GPGGA,004023,4839.2124,N,12327.1408,W,2,08,01.0,17.1,M,-18.2,M,04.0,0131*6C
$GPGLL,4839.21,N,12327.14,W,004023,A,D*50
$GPRMB,V,,,,,,,,,,,,,D*58
$GPRMC,004023,A,4839.212,N,12327.141,W,00.0,041,030322,011.8,E,D*2C
$GPVTG,041,T,029,M,00.0,N,00.1,K,D*29
$GPZDA,004023,03,03,2022,08,00*47
$GPZTG,,,*72
$PMVXG,412,004024,0,0,4839.2124,N,12327.1408,W,,,17.1,041,00.0,5,004024,5,1,1,0.0,0.0
2022-03-02 16:40:24--$GPDTM,W84,,0000.0000,N,00000.0000,E,,W84*71
$GPGGA,004024,4839.2124,N,12327.1408,W,2,08,01.0,17.1,M,-18.2,M,05.0,0131*6A
$GPGLL,4839.21,N,12327.14,W,004024,A,D*57
$GPRMB,V,,,,,,,,,,,,,D*58
$GPRMC,004024,A,4839.212,N,12327.141,W,00.0,063,030322,011.8,E,D*2B
$GPVTG,063,T,051,M,00.0,N,00.1,K,D*26
$GPZDA,004024,03,03,2022,08,00*40
$GPZTG,,,*72
$PMVXG,412,004025,0,0,4839.2124,N,12327.1408,W,,,17.1,063,00.0,5,004025,5,1,1,0.0,0.0
2022-03-02 16:40:25--$GPDTM,W84,,0000.0000,N,00000.0000,E,,W84*71
$GPGGA,004025,4839.2124,N,12327.1408,W,2,08,01.0,17.1,M,-18.2,M,06.0,0131*68
$GPGLL,4839.21,N,12327.14,W,004025,A,D*56
$GPRMB,V,,,,,,,,,,,,,D*58
$GPRMC,004025,A,4839.212,N,12327.141,W,00.0,072,030322,011.8,E,D*2A
$GPVTG,072,T,061,M,00.0,N,00.1,K,D*25
$GPZDA,004025,03,03,2022,08,00*41
$GPZTG,,,*72
$PMVXG,412,004026,0,0,4839.2124,N,12327.1408,W,,,17.1,072,00.0,5,004026,5,1,1,0.0,0.0
2022-03-02 16:40:26--$GPDTM,W84,,0000.0000,N,00000.0000,E,,W84*71
$GPGGA,004026,4839.2124,N,12327.1408,W,2,08,01.0,17.1,M,-18.2,M,07.0,0131*6A
$GPGLL,4839.21,N,12327.14,W,004026,A,D*55
$GPRMB,V,,,,,,,,,,,,,D*58
$GPRMC,004026,A,4839.212,N,12327.141,W,00.1,107,030322,011.8,E,D*2B
$GPVTG,107,T,095,M,00.1,N,00.1,K,D*2C
$GPZDA,004026,03,03,2022,08,00*42
$GPZTG,,,*72
$PMVXG,412,004027,0,0,4839.2124,N,12327.1408,W,,,17.1,107,00.1,5,004027,5,1,1,0.0,-0.0
2022-03-02 16:40:27--$GPDTM,W84,,0000.0000,N,00000.0000,E,,W84*71
$GPGGA,004027,4839.2124,N,12327.1408,W,2,08,01.0,17.1,M,-18.2,M,07.0,0131*6B
$GPGLL,4839.21,N,12327.14,W,004027,A,D*54
$GPRMB,V,,,,,,,,,,,,,D*58
$GPRMC,004027,A,4839.212,N,12327.141,W,00.1,113,030322,011.8,E,D*2F
$GPVTG,113,T,101,M,00.1,N,00.2,K,D*26
$GPZDA,004027,03,03,2022,08,00*43
$GPZTG,,,*72
$PMVXG,412,004028,0,0,4839.2124,N,12327.1408,W,,,17.1,113,00.1,5,004028,5,1,1,0.0,-0.0
2022-03-02 16:40:28--$GPDTM,W84,,0000.0000,N,00000.0000,E,,W84*71
$GPGGA,004028,4839.2124,N,12327.1408,W,2,08,01.0,17.1,M,-18.2,M,07.0,0131*64
$GPGLL,4839.21,N,12327.14,W,004028,A,D*5B
$GPRMB,V,,,,,,,,,,,,,D*58
$GPRMC,004028,A,4839.212,N,12327.141,W,00.1,238,030322,011.8,E,D*2A
$GPVTG,238,T,226,M,00.1,N,00.2,K,D*2A
$GPZDA,004028,03,03,2022,08,00*4C
$GPZTG,,,*72
$PMVXG,412,004029,0,0,4839.2124,N,12327.1408,W,,,17.1,238,00.1,5,004029,5,1,1,-0.1,-0.0
2022-03-02 16:40:29--$GPDTM,W84,,0000.0000,N,00000.0000,E,,W84*71
$GPGGA,004029,4839.2124,N,12327.1408,W,2,08,01.0,17.1,M,-18.2,M,04.0,0131*66
$GPGLL,4839.21,N,12327.14,W,004029,A,D*5A
$GPRMB,V,,,,,,,,,,,,,D*58
$GPRMC,004029,A,4839.212,N,12327.141,W,00.2,252,030322,011.8,E,D*24
$GPVTG,252,T,240,M,00.2,N,00.3,K,D*24
$GPZDA,004029,03,03,2022,08,00*4D
$GPZTG,,,*72
$PMVXG,412,004030,0,0,4839.2124,N,12327.1408,W,,,17.1,252,00.2,5,004030,5,1,1,-0.1,-0.0
2022-03-02 16:40:30--$GPDTM,W84,,0000.0000,N,00000.0000,E,,W84*71
$GPGGA,004030,4839.2124,N,12327.1408,W,2,08,01.0,17.1,M,-18.2,M,05.0,0131*6F
$GPGLL,4839.21,N,12327.14,W,004030,A,D*52
$GPRMB,V,,,,,,,,,,,,,D*58
$GPRMC,004030,A,4839.212,N,12327.141,W,00.1,224,030322,011.8,E,D*2E
$GPVTG,224,T,213,M,00.1,N,00.1,K,D*22
$GPZDA,004030,03,03,2022,08,00*45
$GPZTG,,,*72
$PMVXG,412,004031,0,0,4839.2124,N,12327.1408,W,,,17.1,224,00.1,5,004031,5,1,1,0.0,-0.0
2022-03-02 16:40:31--$GPDTM,W84,,0000.0000,N,00000.0000,E,,W84*71
$GPGGA,004031,4839.2124,N,12327.1408,W,2,08,01.0,17.1,M,-18.2,M,06.0,0131*6D
$GPGLL,4839.21,N,12327.14,W,004031,A,D*53
$GPRMB,V,,,,,,,,,,,,,D*58
$GPRMC,004031,A,4839.212,N,12327.141,W,00.1,125,030322,011.8,E,D*2D
$GPVTG,125,T,113,M,00.1,N,00.1,K,D*23
$GPZDA,004031,03,03,2022,08,00*44
$GPZTG,,,*72
$PMVXG,412,004032,0,0,4839.2124,N,12327.1408,W,,,17.1,125,00.1,5,004032,5,1,1,0.0,-0.0
2022-03-02 16:40:32--$GPDTM,W84,,0000.0000,N,00000.0000,E,,W84*71
$GPGGA,004032,4839.2124,N,12327.1408,W,2,08,01.0,17.1,M,-18.2,M,07.0,0131*6F
$GPGLL,4839.21,N,12327.14,W,004032,A,D*50
$GPRMB,V,,,,,,,,,,,,,D*58
$GPRMC,004032,A,4839.212,N,12327.141,W,00.0,357,030322,011.8,E,D*28
$GPVTG,357,T,345,M,00.0,N,00.1,K,D*24
$GPZDA,004032,03,03,2022,08,00*47
$GPZTG,,,*72
$PMVXG,412,004033,0,0,4839.2124,N,12327.1408,W,,,17.1,357,00.0,5,004033,5,1,1,-0.0,0.0
2022-03-02 16:40:33--$GPDTM,W84,,0000.0000,N,00000.0000,E,,W84*71
$GPGGA,004033,4839.2124,N,12327.1408,W,2,08,01.0,17.1,M,-18.2,M,07.0,0131*6E
$GPGLL,4839.21,N,12327.14,W,004033,A,D*51
$GPRMB,V,,,,,,,,,,,,,D*58
$GPRMC,004033,A,4839.212,N,12327.141,W,00.1,330,030322,011.8,E,D*29
$GPVTG,330,T,318,M,00.1,N,00.1,K,D*2C
$GPZDA,004033,03,03,2022,08,00*46
$GPZTG,,,*72
$PMVXG,412,004034,0,0,4839.2124,N,12327.1408,W,,,17.1,330,00.1,5,004034,5,1,1,-0.0,0.0
2022-03-02 16:40:34--$GPDTM,W84,,0000.0000,N,00000.0000,E,,W84*71
$GPGGA,004034,4839.2124,N,12327.1408,W,2,08,01.0,17.1,M,-18.2,M,07.0,0131*69
$GPGLL,4839.21,N,12327.14,W,004034,A,D*56
$GPRMB,V,,,,,,,,,,,,,D*58
$GPRMC,004034,A,4839.212,N,12327.141,W,00.0,099,030322,011.8,E,D*2F
$GPVTG,099,T,087,M,00.0,N,00.0,K,D*29
$GPZDA,004034,03,03,2022,08,00*41
$GPZTG,,,*72
$PMVXG,412,004035,0,0,4839.2124,N,12327.1408,W,,,17.1,099,00.0,5,004035,5,1,1,0.0,-0.0
2022-03-02 16:40:35--$GPDTM,W84,,0000.0000,N,00000.0000,E,,W84*71
$GPGGA,004035,4839.2124,N,12327.1408,W,2,08,01.0,17.1,M,-18.2,M,04.0,0131*6B
$GPGLL,4839.21,N,12327.14,W,004035,A,D*57
$GPRMB,V,,,,,,,,,,,,,D*58
$GPRMC,004035,A,4839.212,N,12327.141,W,00.1,130,030322,011.8,E,D*2D
$GPVTG,130,T,118,M,00.1,N,00.1,K,D*2C
$GPZDA,004035,03,03,2022,08,00*40
$GPZTG,,,*72
$PMVXG,412,004036,0,0,4839.2124,N,12327.1408,W,,,17.1,130,00.1,5,004036,5,1,1,0.0,-0.0
2022-03-02 16:40:36--$GPDTM,W84,,0000.0000,N,00000.0000,E,,W84*71
$GPGGA,004036,4839.2124,N,12327.1408,W,2,08,01.0,17.1,M,-18.2,M,05.0,0131*69
$GPGLL,4839.21,N,12327.14,W,004036,A,D*54
$GPRMB,V,,,,,,,,,,,,,D*58
$GPRMC,004036,A,4839.212,N,12327.141,W,00.1,209,030322,011.8,E,D*27
$GPVTG,209,T,197,M,00.1,N,00.1,K,D*22
$GPZDA,004036,03,03,2022,08,00*43
$GPZTG,,,*72
$PMVXG,412,004037,0,0,4839.2124,N,12327.1408,W,,,17.1,209,00.1,5,004037,5,1,1,-0.0,-0.0
2022-03-02 16:40:37--$GPDTM,W84,,0000.0000,N,00000.0000,E,,W84*71
$GPGGA,004037,4839.2124,N,12327.1408,W,2,08,01.0,17.1,M,-18.2,M,06.0,0131*6B
$GPGLL,4839.21,N,12327.14,W,004037,A,D*55
$GPRMB,V,,,,,,,,,,,,,D*58
$GPRMC,004037,A,4839.212,N,12327.141,W,00.1,240,030322,011.8,E,D*2B
$GPVTG,240,T,228,M,00.1,N,00.1,K,D*28
$GPZDA,004037,03,03,2022,08,00*42
$GPZTG,,,*72
$PMVXG,412,004038,0,0,4839.2124,N,12327.1408,W,,,17.1,240,00.1,5,004038,5,1,1,-0.0,-0.0
2022-03-02 16:40:38--$GPDTM,W84,,0000.0000,N,00000.0000,E,,W84*71
$GPGGA,004038,4839.2124,N,12327.1408,W,2,08,01.0,17.1,M,-18.2,M,07.0,0131*65
$GPGLL,4839.21,N,12327.14,W,004038,A,D*5A
$GPRMB,V,,,,,,,,,,,,,D*58
$GPRMC,004038,A,4839.212,N,12327.141,W,00.1,241,030322,011.8,E,D*25
$GPVTG,241,T,229,M,00.1,N,00.1,K,D*28
$GPZDA,004038,03,03,2022,08,00*4D
$GPZTG,,,*72
$PMVXG,412,004039,0,0,4839.2124,N,12327.1408,W,,,17.1,241,00.1,5,004039,5,1,1,-0.0,-0.0
2022-03-02 16:40:39--$GPDTM,W84,,0000.0000,N,00000.0000,E,,W84*71
$GPGGA,004039,4839.2124,N,12327.1408,W,2,08,01.0,17.1,M,-18.2,M,07.0,0131*64
$GPGLL,4839.21,N,12327.14,W,004039,A,D*5B
$GPRMB,V,,,,,,,,,,,,,D*58
$GPRMC,004039,A,4839.212,N,12327.141,W,00.1,237,030322,011.8,E,D*25
$GPVTG,237,T,226,M,00.1,N,00.1,K,D*26
$GPZDA,004039,03,03,2022,08,00*4C
$GPZTG,,,*72
$PMVXG,412,004040,0,0,4839.2124,N,12327.1408,W,,,17.1,237,00.1,5,004040,5,1,1,-0.0,-0.0
2022-03-02 16:40:40--$GPDTM,W84,,0000.0000,N,00000.0000,E,,W84*71
$GPGGA,004040,4839.2124,N,12327.1408,W,2,08,01.0,17.1,M,-18.2,M,07.0,0131*6A
$GPGLL,4839.21,N,12327.14,W,004040,A,D*55
$GPRMB,V,,,,,,,,,,,,,D*58
$GPRMC,004040,A,4839.212,N,12327.141,W,00.1,343,030322,011.8,E,D*29
$GPVTG,343,T,331,M,00.1,N,00.2,K,D*20
$GPZDA,004040,03,03,2022,08,00*42
$GPZTG,,,*72
$PMVXG,412,004041,0,0,4839.2124,N,12327.1408,W,,,17.1,343,00.1,5,004041,5,1,1,-0.0,0.1
2022-03-02 16:40:41--$GPDTM,W84,,0000.0000,N,00000.0000,E,,W84*71
$GPGGA,004041,4839.2124,N,12327.1408,W,2,08,01.0,17.1,M,-18.2,M,04.0,0131*68
$GPGLL,4839.21,N,12327.14,W,004041,A,D*54
$GPRMB,V,,,,,,,,,,,,,D*58
$GPRMC,004041,A,4839.212,N,12327.141,W,00.1,355,030322,011.8,E,D*2F
$GPVTG,355,T,343,M,00.1,N,00.3,K,D*23
$GPZDA,004041,03,03,2022,08,00*43
$GPZTG,,,*72
$PMVXG,412,004042,0,0,4839.2124,N,12327.1408,W,,,17.1,355,00.1,5,004042,5,1,1,-0.0,0.1
2022-03-02 16:40:43--$GPDTM,W84,,0000.0000,N,00000.0000,E,,W84*71
$GPGGA,004042,4839.2124,N,12327.1408,W,2,08,01.0,17.1,M,-18.2,M,05.0,0131*6A
$GPGLL,4839.21,N,12327.14,W,004042,A,D*57
$GPRMB,V,,,,,,,,,,,,,D*58
$GPRMC,004042,A,4839.212,N,12327.141,W,00.1,345,030322,011.8,E,D*2D
$GPVTG,345,T,333,M,00.1,N,00.1,K,D*27
$GPZDA,004042,03,03,2022,08,00*40
$GPZTG,,,*72
$PMVXG,412,004043,0,0,4839.2124,N,12327.1408,W,,,17.1,345,00.1,5,004043,5,1,1,-0.0,0.0
2022-03-02 16:40:43--$GPDTM,W84,,0000.0000,N,00000.0000,E,,W84*71
$GPGGA,004043,4839.2124,N,12327.1408,W,2,08,01.0,17.1,M,-18.2,M,06.0,0131*68
$GPGLL,4839.21,N,12327.14,W,004043,A,D*56
$GPRMB,V,,,,,,,,,,,,,D*58
$GPRMC,004043,A,4839.212,N,12327.141,W,00.0,314,030322,011.8,E,D*29
$GPVTG,314,T,302,M,00.0,N,00.1,K,D*20
$GPZDA,004043,03,03,2022,08,00*41
$GPZTG,,,*72
$PMVXG,412,004044,0,0,4839.2124,N,12327.1408,W,,,17.1,314,00.0,5,004044,5,1,1,-0.0,0.0
2022-03-02 16:40:44--$GPDTM,W84,,0000.0000,N,00000.0000,E,,W84*71
$GPGGA,004044,4839.2124,N,12327.1408,W,2,08,01.0,17.1,M,-18.2,M,07.0,0131*6E
$GPGLL,4839.21,N,12327.14,W,004044,A,D*51
$GPRMB,V,,,,,,,,,,,,,D*58
$GPRMC,004044,A,4839.212,N,12327.141,W,00.0,026,030322,011.8,E,D*2C
$GPVTG,026,T,014,M,00.0,N,00.1,K,D*26
$GPZDA,004044,03,03,2022,08,00*46
$GPZTG,,,*72
$PMVXG,412,004045,0,0,4839.2124,N,12327.1408,W,,,17.1,026,00.0,5,004045,5,1,1,0.0,0.0
2022-03-02 16:40:45--$GPDTM,W84,,0000.0000,N,00000.0000,E,,W84*71
$GPGGA,004045,4839.2124,N,12327.1408,W,2,08,01.0,17.1,M,-18.2,M,07.0,0131*6F
$GPGLL,4839.21,N,12327.14,W,004045,A,D*50
$GPRMB,V,,,,,,,,,,,,,D*58
$GPRMC,004045,A,4839.212,N,12327.141,W,00.0,042,030322,011.8,E,D*2F
$GPVTG,042,T,030,M,00.0,N,00.1,K,D*22
$GPZDA,004045,03,03,2022,08,00*47
$GPZTG,,,*72
$PMVXG,412,004046,0,0,4839.2124,N,12327.1408,W,,,17.1,042,00.0,5,004046,5,1,1,0.0,0.0
2022-03-02 16:40:46--$GPDTM,W84,,0000.0000,N,00000.0000,E,,W84*71
$GPGGA,004046,4839.2124,N,12327.1408,W,2,08,01.0,17.1,M,-18.2,M,07.0,0131*6C
$GPGLL,4839.21,N,12327.14,W,004046,A,D*53
$GPRMB,V,,,,,,,,,,,,,D*58
$GPRMC,004046,A,4839.212,N,12327.141,W,00.1,069,030322,011.8,E,D*24
$GPVTG,069,T,057,M,00.1,N,00.1,K,D*2B
$GPZDA,004046,03,03,2022,08,00*44
$GPZTG,,,*72
$PMVXG,412,004047,0,0,4839.2124,N,12327.1408,W,,,17.1,069,00.1,5,004047,5,1,1,0.0,0.0
2022-03-02 16:40:47--$GPDTM,W84,,0000.0000,N,00000.0000,E,,W84*71
$GPGGA,004047,4839.2124,N,12327.1408,W,2,08,01.0,17.1,M,-18.2,M,04.0,0131*6E
$GPGLL,4839.21,N,12327.14,W,004047,A,D*52
$GPRMB,V,,,,,,,,,,,,,D*58
$GPRMC,004047,A,4839.212,N,12327.141,W,00.1,076,030322,011.8,E,D*2B
$GPVTG,076,T,064,M,00.1,N,00.2,K,D*26
$GPZDA,004047,03,03,2022,08,00*45
$GPZTG,,,*72
$PMVXG,412,004048,0,0,4839.2124,N,12327.1408,W,,,17.1,076,00.1,5,004048,5,1,1,0.0,0.0
2022-03-02 16:40:48--$GPDTM,W84,,0000.0000,N,00000.0000,E,,W84*71
$GPGGA,004048,4839.2124,N,12327.1408,W,2,08,01.0,17.1,M,-18.2,M,05.0,0131*60
$GPGLL,4839.21,N,12327.14,W,004048,A,D*5D
$GPRMB,V,,,,,,,,,,,,,D*58
$GPRMC,004048,A,4839.212,N,12327.141,W,00.0,163,030322,011.8,E,D*20
$GPVTG,163,T,151,M,00.0,N,00.0,K,D*27
$GPZDA,004048,03,03,2022,08,00*4A
$GPZTG,,,*72
$PMVXG,412,004049,0,0,4839.2124,N,12327.1408,W,,,17.1,163,00.0,5,004049,5,1,1,-0.0,-0.0
2022-03-02 16:40:49--$GPDTM,W84,,0000.0000,N,00000.0000,E,,W84*71
$GPGGA,004049,4839.2124,N,12327.1408,W,2,08,01.0,17.1,M,-18.2,M,06.0,0131*62
$GPGLL,4839.21,N,12327.14,W,004049,A,D*5C
$GPRMB,V,,,,,,,,,,,,,D*58
$GPRMC,004049,A,4839.212,N,12327.141,W,00.0,242,030322,011.8,E,D*21
$GPVTG,242,T,230,M,00.0,N,00.1,K,D*22
$GPZDA,004049,03,03,2022,08,00*4B
$GPZTG,,,*72
$PMVXG,412,004050,0,0,4839.2124,N,12327.1408,W,,,17.1,242,00.0,5,004050,5,1,1,-0.0,-0.0
2022-03-02 16:40:50--$GPDTM,W84,,0000.0000,N,00000.0000,E,,W84*71
$GPGGA,004050,4839.2124,N,12327.1408,W,2,08,01.0,17.1,M,-18.2,M,07.0,0131*6B
$GPGLL,4839.21,N,12327.14,W,004050,A,D*54
$GPRMB,V,,,,,,,,,,,,,D*58
$GPRMC,004050,A,4839.212,N,12327.141,W,00.0,130,030322,011.8,E,D*2F
$GPVTG,130,T,119,M,00.0,N,00.0,K,D*2D
$GPZDA,004050,03,03,2022,08,00*43
$GPZTG,,,*72
$PMVXG,412,004051,0,0,4839.2124,N,12327.1408,W,,,17.1,130,00.0,5,004051,5,1,1,0.0,0.0
2022-03-02 16:40:51--$GPDTM,W84,,0000.0000,N,00000.0000,E,,W84*71
$GPGGA,004051,4839.2124,N,12327.1408,W,2,08,01.0,17.1,M,-18.2,M,07.0,0131*6A
$GPGLL,4839.21,N,12327.14,W,004051,A,D*55
$GPRMB,V,,,,,,,,,,,,,D*58
$GPRMC,004051,A,4839.212,N,12327.141,W,00.0,091,030322,011.8,E,D*24
$GPVTG,091,T,080,M,00.0,N,00.1,K,D*27
$GPZDA,004051,03,03,2022,08,00*42
$GPZTG,,,*72
$PMVXG,412,004052,0,0,4839.2124,N,12327.1408,W,,,17.1,091,00.0,5,004052,5,1,1,0.0,0.0
2022-03-02 16:40:52--$GPDTM,W84,,0000.0000,N,00000.0000,E,,W84*71
$GPGGA,004052,4839.2124,N,12327.1408,W,2,08,01.0,17.1,M,-18.2,M,07.0,0131*69
$GPGLL,4839.21,N,12327.14,W,004052,A,D*56
$GPRMB,V,,,,,,,,,,,,,D*58
$GPRMC,004052,A,4839.212,N,12327.141,W,00.0,048,030322,011.8,E,D*23
$GPVTG,048,T,036,M,00.0,N,00.0,K,D*2F
$GPZDA,004052,03,03,2022,08,00*41
$GPZTG,,,*72
$PMVXG,412,004053,0,0,4839.2124,N,12327.1408,W,,,17.1,048,00.0,5,004053,5,1,1,-0.0,0.0
2022-03-02 16:40:53--$GPDTM,W84,,0000.0000,N,00000.0000,E,,W84*71
$GPGGA,004053,4839.2124,N,12327.1408,W,2,08,01.0,17.1,M,-18.2,M,04.0,0131*6B
$GPGLL,4839.21,N,12327.14,W,004053,A,D*57
$GPRMB,V,,,,,,,,,,,,,D*58
$GPRMC,004053,A,4839.212,N,12327.141,W,00.0,336,030322,011.8,E,D*28
$GPVTG,336,T,324,M,00.0,N,00.0,K,D*25
$GPZDA,004053,03,03,2022,08,00*40
$GPZTG,,,*72
$PMVXG,412,004054,0,0,4839.2124,N,12327.1408,W,,,17.1,336,00.0,5,004054,5,1,1,-0.0,0.0
2022-03-02 16:40:54--$GPDTM,W84,,0000.0000,N,00000.0000,E,,W84*71
$GPGGA,004054,4839.2124,N,12327.1408,W,2,08,01.0,17.1,M,-18.2,M,05.0,0131*6D
$GPGLL,4839.21,N,12327.14,W,004054,A,D*50
$GPRMB,V,,,,,,,,,,,,,D*58
$GPRMC,004054,A,4839.212,N,12327.141,W,00.1,015,030322,011.8,E,D*2C
$GPVTG,015,T,003,M,00.1,N,00.1,K,D*21
$GPZDA,004054,03,03,2022,08,00*47
$GPZTG,,,*72
$PMVXG,412,004055,0,0,4839.2124,N,12327.1408,W,,,17.1,015,00.1,5,004055,5,1,1,0.0,0.0
2022-03-02 16:40:55--$GPDTM,W84,,0000.0000,N,00000.0000,E,,W84*71
$GPGGA,004055,4839.2124,N,12327.1408,W,2,08,01.0,17.1,M,-18.2,M,06.0,0131*6F
$GPGLL,4839.21,N,12327.14,W,004055,A,D*51
$GPRMB,V,,,,,,,,,,,,,D*58
$GPRMC,004055,A,4839.212,N,12327.141,W,00.1,021,030322,011.8,E,D*2A
$GPVTG,021,T,010,M,00.1,N,00.1,K,D*24
$GPZDA,004055,03,03,2022,08,00*46
$GPZTG,,,*72
$PMVXG,412,004056,0,0,4839.2124,N,12327.1408,W,,,17.1,021,00.1,5,004056,5,1,1,0.0,0.0
2022-03-02 16:40:56--$GPDTM,W84,,0000.0000,N,00000.0000,E,,W84*71
$GPGGA,004056,4839.2124,N,12327.1408,W,2,08,01.0,17.1,M,-18.2,M,07.0,0131*6D
$GPGLL,4839.21,N,12327.14,W,004056,A,D*52
$GPRMB,V,,,,,,,,,,,,,D*58
$GPRMC,004056,A,4839.212,N,12327.141,W,00.0,229,030322,011.8,E,D*22
$GPVTG,229,T,217,M,00.0,N,00.1,K,D*2A
$GPZDA,004056,03,03,2022,08,00*45
$GPZTG,,,*72
$PMVXG,412,004057,0,0,4839.2124,N,12327.1408,W,,,17.1,229,00.0,5,004057,5,1,1,-0.0,-0.0
2022-03-02 16:40:57--$GPDTM,W84,,0000.0000,N,00000.0000,E,,W84*71
$GPGGA,004057,4839.2124,N,12327.1408,W,2,08,01.0,17.1,M,-18.2,M,07.0,0131*6C
$GPGLL,4839.21,N,12327.14,W,004057,A,D*53
$GPRMB,V,,,,,,,,,,,,,D*58
$GPRMC,004057,A,4839.212,N,12327.141,W,00.1,218,030322,011.8,E,D*20
$GPVTG,218,T,206,M,00.1,N,00.2,K,D*2A
$GPZDA,004057,03,03,2022,08,00*44
$GPZTG,,,*72
$PMVXG,412,004058,0,0,4839.2124,N,12327.1408,W,,,17.1,218,00.1,5,004058,5,1,1,-0.0,-0.0
2022-03-02 16:40:58--$GPDTM,W84,,0000.0000,N,00000.0000,E,,W84*71
$GPGGA,004058,4839.2124,N,12327.1408,W,2,08,01.0,17.1,M,-18.2,M,07.0,0131*63
$GPGLL,4839.21,N,12327.14,W,004058,A,D*5C
$GPRMB,V,,,,,,,,,,,,,D*58
$GPRMC,004058,A,4839.212,N,12327.141,W,00.1,205,030322,011.8,E,D*23
$GPVTG,205,T,194,M,00.1,N,00.2,K,D*2E
$GPZDA,004058,03,03,2022,08,00*4B
$GPZTG,,,*72
$PMVXG,412,004059,0,0,4839.2124,N,12327.1408,W,,,17.1,205,00.1,5,004059,5,1,1,-0.0,-0.0
2022-03-02 16:40:59--$GPDTM,W84,,0000.0000,N,00000.0000,E,,W84*71
$GPGGA,004059,4839.2124,N,12327.1408,W,2,08,01.0,17.1,M,-18.2,M,04.0,0131*61
$GPGLL,4839.21,N,12327.14,W,004059,A,D*5D
$GPRMB,V,,,,,,,,,,,,,D*58
$GPRMC,004059,A,4839.212,N,12327.141,W,00.1,198,030322,011.8,E,D*25
$GPVTG,198,T,187,M,00.1,N,00.2,K,D*2B
$GPZDA,004059,03,03,2022,08,00*4A
$GPZTG,,,*72
$PMVXG,412,004100,0,0,4839.2124,N,12327.1408,W,,,17.1,198,00.1,5,004100,5,1,1,-0.0,-0.0
2022-03-02 16:41:00--$GPDTM,W84,,0000.0000,N,00000.0000,E,,W84*71
$GPGGA,004100,4839.2124,N,12327.1408,W,2,08,01.0,17.1,M,-18.2,M,05.0,0131*6D
$GPGLL,4839.21,N,12327.14,W,004100,A,D*50
$GPRMB,V,,,,,,,,,,,,,D*58
$GPRMC,004100,A,4839.212,N,12327.141,W,00.1,073,030322,011.8,E,D*2C
$GPVTG,073,T,061,M,00.1,N,00.1,K,D*25
$GPZDA,004100,03,03,2022,08,00*47
$GPZTG,,,*72
$PMVXG,412,004101,0,0,4839.2124,N,12327.1408,W,,,17.1,073,00.1,5,004101,5,1,1,0.0,0.0
2022-03-02 16:41:01--$GPDTM,W84,,0000.0000,N,00000.0000,E,,W84*71
$GPGGA,004101,4839.2124,N,12327.1408,W,2,08,01.0,17.1,M,-18.2,M,06.0,0131*6F
$GPGLL,4839.21,N,12327.14,W,004101,A,D*51
$GPRMB,V,,,,,,,,,,,,,D*58
$GPRMC,004101,A,4839.212,N,12327.141,W,00.1,054,030322,011.8,E,D*28
$GPVTG,054,T,042,M,00.1,N,00.2,K,D*22
$GPZDA,004101,03,03,2022,08,00*46
$GPZTG,,,*72
$PMVXG,412,004102,0,0,4839.2124,N,12327.1408,W,,,17.1,054,00.1,5,004102,5,1,1,0.0,0.0
2022-03-02 16:41:03--$GPDTM,W84,,0000.0000,N,00000.0000,E,,W84*71
$GPGGA,004102,4839.2124,N,12327.1408,W,2,08,01.0,17.1,M,-18.2,M,07.0,0131*6D
$GPGLL,4839.21,N,12327.14,W,004102,A,D*52
$GPRMB,V,,,,,,,,,,,,,D*58
$GPRMC,004102,A,4839.212,N,12327.141,W,00.1,357,030322,011.8,E,D*2B
$GPVTG,357,T,345,M,00.1,N,00.1,K,D*25
$GPZDA,004102,03,03,2022,08,00*45
$GPZTG,,,*72
$PMVXG,412,004103,0,0,4839.2124,N,12327.1408,W,,,17.1,357,00.1,5,004103,5,1,1,-0.0,0.0
2022-03-02 16:41:03--$GPDTM,W84,,0000.0000,N,00000.0000,E,,W84*71
$GPGGA,004103,4839.2124,N,12327.1408,W,2,08,01.0,17.1,M,-18.2,M,07.0,0131*6C
$GPGLL,4839.21,N,12327.14,W,004103,A,D*53
$GPRMB,V,,,,,,,,,,,,,D*58
$GPRMC,004103,A,4839.212,N,12327.141,W,00.1,318,030322,011.8,E,D*21
$GPVTG,318,T,306,M,00.1,N,00.2,K,D*2A
$GPZDA,004103,03,03,2022,08,00*44
$GPZTG,,,*72
$PMVXG,412,004104,0,0,4839.2124,N,12327.1408,W,,,17.1,318,00.1,5,004104,5,1,1,-0.0,0.0
2022-03-02 16:41:04--$GPDTM,W84,,0000.0000,N,00000.0000,E,,W84*71
$GPGGA,004104,4839.2124,N,12327.1408,W,2,08,01.0,17.1,M,-18.2,M,07.0,0131*6B
$GPGLL,4839.21,N,12327.14,W,004104,A,D*54
$GPRMB,V,,,,,,,,,,,,,D*58
$GPRMC,004104,A,4839.212,N,12327.141,W,00.0,161,030322,011.8,E,D*2B
$GPVTG,161,T,149,M,00.0,N,00.0,K,D*2C
$GPZDA,004104,03,03,2022,08,00*43
$GPZTG,,,*72
$PMVXG,412,004105,0,0,4839.2124,N,12327.1408,W,,,17.1,161,00.0,5,004105,5,1,1,0.0,-0.0
2022-03-02 16:41:05--$GPDTM,W84,,0000.0000,N,00000.0000,E,,W84*71
$GPGGA,004105,4839.2124,N,12327.1408,W,2,08,01.0,17.1,M,-18.2,M,04.0,0131*69
$GPGLL,4839.21,N,12327.14,W,004105,A,D*55
$GPRMB,V,,,,,,,,,,,,,D*58
$GPRMC,004105,A,4839.212,N,12327.141,W,00.1,133,030322,011.8,E,D*2C
$GPVTG,133,T,121,M,00.1,N,00.1,K,D*25
$GPZDA,004105,03,03,2022,08,00*42
$GPZTG,,,*72
$PMVXG,412,004106,0,0,4839.2124,N,12327.1408,W,,,17.1,133,00.1,5,004106,5,1,1,0.0,-0.0
2022-03-02 16:41:06--$GPDTM,W84,,0000.0000,N,00000.0000,E,,W84*71
$GPGGA,004106,4839.2124,N,12327.1408,W,2,08,01.0,17.1,M,-18.2,M,05.0,0131*6B
$GPGLL,4839.21,N,12327.14,W,004106,A,D*56
$GPRMB,V,,,,,,,,,,,,,D*58
$GPRMC,004106,A,4839.212,N,12327.141,W,00.1,002,030322,011.8,E,D*2C
$GPVTG,002,T,350,M,00.1,N,00.1,K,D*22
$GPZDA,004106,03,03,2022,08,00*41
$GPZTG,,,*72
$PMVXG,412,004107,0,0,4839.2124,N,12327.1408,W,,,17.1,002,00.1,5,004107,5,1,1,-0.0,0.1
2022-03-02 16:41:07--$GPDTM,W84,,0000.0000,N,00000.0000,E,,W84*71
$GPGGA,004107,4839.2124,N,12327.1408,W,2,08,01.0,17.1,M,-18.2,M,06.0,0131*69
$GPGLL,4839.21,N,12327.14,W,004107,A,D*57
$GPRMB,V,,,,,,,,,,,,,D*58
$GPRMC,004107,A,4839.212,N,12327.141,W,00.1,351,030322,011.8,E,D*28
$GPVTG,351,T,339,M,00.1,N,00.3,K,D*2A
$GPZDA,004107,03,03,2022,08,00*40
$GPZTG,,,*72
$PMVXG,412,004108,0,0,4839.2124,N,12327.1408,W,,,17.1,351,00.1,5,004108,5,1,1,-0.0,0.1
2022-03-02 16:41:08--$GPDTM,W84,,0000.0000,N,00000.0000,E,,W84*71
$GPGGA,004108,4839.2124,N,12327.1408,W,2,08,01.0,17.1,M,-18.2,M,07.0,0131*67
$GPGLL,4839.21,N,12327.14,W,004108,A,D*58
$GPRMB,V,,,,,,,,,,,,,D*58
$GPRMC,004108,A,4839.212,N,12327.141,W,00.1,015,030322,011.8,E,D*24
$GPVTG,015,T,003,M,00.1,N,00.1,K,D*21
$GPZDA,004108,03,03,2022,08,00*4F
$GPZTG,,,*72
$PMVXG,412,004109,0,0,4839.2124,N,12327.1408,W,,,17.1,015,00.1,5,004109,5,1,1,0.0,0.0
2022-03-02 16:41:09--$GPDTM,W84,,0000.0000,N,00000.0000,E,,W84*71
$GPGGA,004109,4839.2124,N,12327.1408,W,2,08,01.0,17.1,M,-18.2,M,07.0,0131*66
$GPGLL,4839.21,N,12327.14,W,004109,A,D*59
$GPRMB,V,,,,,,,,,,,,,D*58
$GPRMC,004109,A,4839.212,N,12327.141,W,00.1,059,030322,011.8,E,D*2D
$GPVTG,059,T,047,M,00.1,N,00.1,K,D*29
$GPZDA,004109,03,03,2022,08,00*4E
$GPZTG,,,*72
$PMVXG,412,004110,0,0,4839.2124,N,12327.1408,W,,,17.1,059,00.1,5,004110,5,1,1,0.0,0.0
2022-03-02 16:41:10--$GPDTM,W84,,0000.0000,N,00000.0000,E,,W84*71
$GPGGA,004110,4839.2124,N,12327.1408,W,2,08,01.0,17.1,M,-18.2,M,07.0,0131*6E
$GPGLL,4839.21,N,12327.14,W,004110,A,D*51
$GPRMB,V,,,,,,,,,,,,,D*58
$GPRMC,004110,A,4839.212,N,12327.141,W,00.0,291,030322,011.8,E,D*22
$GPVTG,291,T,279,M,00.0,N,00.1,K,D*21
$GPZDA,004110,03,03,2022,08,00*46
$GPZTG,,,*72
$PMVXG,412,004111,0,0,4839.2124,N,12327.1408,W,,,17.1,291,00.0,5,004111,5,1,1,-0.0,0.0
2022-03-02 16:41:11--$GPDTM,W84,,0000.0000,N,00000.0000,E,,W84*71
$GPGGA,004111,4839.2124,N,12327.1408,W,2,08,01.0,17.1,M,-18.2,M,04.0,0131*6C
$GPGLL,4839.21,N,12327.14,W,004111,A,D*50
$GPRMB,V,,,,,,,,,,,,,D*58
$GPRMC,004111,A,4839.212,N,12327.141,W,00.1,281,030322,011.8,E,D*23
$GPVTG,281,T,269,M,00.1,N,00.1,K,D*20
$GPZDA,004111,03,03,2022,08,00*47
$GPZTG,,,*72
$PMVXG,412,004112,0,0,4839.2124,N,12327.1408,W,,,17.1,281,00.1,5,004112,5,1,1,-0.0,0.0
2022-03-02 16:41:13--$GPDTM,W84,,0000.0000,N,00000.0000,E,,W84*71
$GPGGA,004112,4839.2124,N,12327.1408,W,2,08,01.0,17.1,M,-18.2,M,05.0,0131*6E
$GPGLL,4839.21,N,12327.14,W,004112,A,D*53
$GPRMB,V,,,,,,,,,,,,,D*58
$GPRMC,004112,A,4839.212,N,12327.141,W,00.1,328,030322,011.8,E,D*22
$GPVTG,328,T,316,M,00.1,N,00.2,K,D*28
$GPZDA,004112,03,03,2022,08,00*44
$GPZTG,,,*72
$PMVXG,412,004113,0,0,4839.2124,N,12327.1408,W,,,17.1,328,00.1,5,004113,5,1,1,-0.0,0.1
2022-03-02 16:41:13--$GPDTM,W84,,0000.0000,N,00000.0000,E,,W84*71
$GPGGA,004113,4839.2124,N,12327.1408,W,2,08,01.0,17.1,M,-18.2,M,06.0,0131*6C
$GPGLL,4839.21,N,12327.14,W,004113,A,D*52
$GPRMB,V,,,,,,,,,,,,,D*58
$GPRMC,004113,A,4839.212,N,12327.141,W,00.1,347,030322,011.8,E,D*2A
$GPVTG,347,T,335,M,00.1,N,00.2,K,D*20
$GPZDA,004113,03,03,2022,08,00*45
$GPZTG,,,*72
$PMVXG,412,004114,0,0,4839.2124,N,12327.1408,W,,,17.1,347,00.1,5,004114,5,1,1,-0.0,0.1
2022-03-02 16:41:14--$GPDTM,W84,,0000.0000,N,00000.0000,E,,W84*71
$GPGGA,004114,4839.2124,N,12327.1408,W,2,08,01.0,17.1,M,-18.2,M,07.0,0131*6A
$GPGLL,4839.21,N,12327.14,W,004114,A,D*55
$GPRMB,V,,,,,,,,,,,,,D*58
$GPRMC,004114,A,4839.212,N,12327.141,W,00.1,242,030322,011.8,E,D*29
$GPVTG,242,T,231,M,00.1,N,00.1,K,D*22
$GPZDA,004114,03,03,2022,08,00*42
$GPZTG,,,*72
$PMVXG,412,004115,0,0,4839.2124,N,12327.1408,W,,,17.1,242,00.1,5,004115,5,1,1,-0.0,-0.0
2022-03-02 16:41:15--$GPDTM,W84,,0000.0000,N,00000.0000,E,,W84*71
$GPGGA,004115,4839.2124,N,12327.1408,W,2,08,01.0,17.1,M,-18.2,M,07.0,0131*6B
$GPGLL,4839.21,N,12327.14,W,004115,A,D*54
$GPRMB,V,,,,,,,,,,,,,D*58
$GPRMC,004115,A,4839.212,N,12327.141,W,00.1,217,030322,011.8,E,D*28
$GPVTG,217,T,205,M,00.1,N,00.2,K,D*26
$GPZDA,004115,03,03,2022,08,00*43
$GPZTG,,,*72
$PMVXG,412,004116,0,0,4839.2124,N,12327.1408,W,,,17.1,217,00.1,5,004116,5,1,1,-0.0,-0.0
2022-03-02 16:41:16--$GPDTM,W84,,0000.0000,N,00000.0000,E,,W84*71
$GPGGA,004116,4839.2124,N,12327.1408,W,2,08,01.0,17.1,M,-18.2,M,07.0,0131*68
$GPGLL,4839.21,N,12327.14,W,004116,A,D*57
$GPRMB,V,,,,,,,,,,,,,D*58
$GPRMC,004116,A,4839.212,N,12327.141,W,00.1,204,030322,011.8,E,D*29
$GPVTG,204,T,192,M,00.1,N,00.2,K,D*29
$GPZDA,004116,03,03,2022,08,00*40
$GPZTG,,,*72
$PMVXG,412,004117,0,0,4839.2124,N,12327.1408,W,,,17.1,204,00.1,5,004117,5,1,1,-0.0,-0.1
2022-03-02 16:41:17--$GPDTM,W84,,0000.0000,N,00000.0000,E,,W84*71
$GPGGA,004117,4839.2124,N,12327.1408,W,2,08,01.0,17.1,M,-18.2,M,04.0,0131*6A
$GPGLL,4839.21,N,12327.14,W,004117,A,D*56
$GPRMB,V,,,,,,,,,,,,,D*58
$GPRMC,004117,A,4839.212,N,12327.141,W,00.1,198,030322,011.8,E,D*2E
$GPVTG,198,T,187,M,00.1,N,00.2,K,D*2B
$GPZDA,004117,03,03,2022,08,00*41
$GPZTG,,,*72
$PMVXG,412,004118,0,0,4839.2124,N,12327.1408,W,,,17.1,198,00.1,5,004118,5,1,1,-0.0,-0.1
2022-03-02 16:41:18--$GPDTM,W84,,0000.0000,N,00000.0000,E,,W84*71
$GPGGA,004118,4839.2124,N,12327.1408,W,2,08,01.0,17.1,M,-18.2,M,05.0,0131*64
$GPGLL,4839.21,N,12327.14,W,004118,A,D*59
$GPRMB,V,,,,,,,,,,,,,D*58
$GPRMC,004118,A,4839.212,N,12327.141,W,00.1,187,030322,011.8,E,D*2F
$GPVTG,187,T,176,M,00.1,N,00.3,K,D*2A
$GPZDA,004118,03,03,2022,08,00*4E
$GPZTG,,,*72
$PMVXG,412,004119,0,0,4839.2124,N,12327.1408,W,,,17.1,187,00.1,5,004119,5,1,1,-0.0,-0.1
2022-03-02 16:41:19--$GPDTM,W84,,0000.0000,N,00000.0000,E,,W84*71
$GPGGA,004119,4839.2124,N,12327.1408,W,2,08,01.0,17.1,M,-18.2,M,06.0,0131*66
$GPGLL,4839.21,N,12327.14,W,004119,A,D*58
$GPRMB,V,,,,,,,,,,,,,D*58
$GPRMC,004119,A,4839.212,N,12327.141,W,00.1,184,030322,011.8,E,D*2D
$GPVTG,184,T,172,M,00.1,N,00.3,K,D*2D
$GPZDA,004119,03,03,2022,08,00*4F
$GPZTG,,,*72
$PMVXG,412,004120,0,0,4839.2124,N,12327.1408,W,,,17.1,184,00.1,5,004120,5,1,1,-0.0,-0.1
2022-03-02 16:41:20--$GPDTM,W84,,0000.0000,N,00000.0000,E,,W84*71
$GPGGA,004120,4839.2124,N,12327.1408,W,2,08,01.0,17.1,M,-18.2,M,07.0,0131*6D
$GPGLL,4839.21,N,12327.14,W,004120,A,D*52
$GPRMB,V,,,,,,,,,,,,,D*58
$GPRMC,004120,A,4839.212,N,12327.141,W,00.0,131,030322,011.8,E,D*28
$GPVTG,131,T,119,M,00.0,N,00.1,K,D*2D
$GPZDA,004120,03,03,2022,08,00*45
$GPZTG,,,*72
$PMVXG,412,004121,0,0,4839.2124,N,12327.1408,W,,,17.1,131,00.0,5,004121,5,1,1,0.0,0.0
2022-03-02 16:41:21--$GPDTM,W84,,0000.0000,N,00000.0000,E,,W84*71
$GPGGA,004121,4839.2124,N,12327.1408,W,2,08,01.0,17.1,M,-18.2,M,07.0,0131*6C
$GPGLL,4839.21,N,12327.14,W,004121,A,D*53
$GPRMB,V,,,,,,,,,,,,,D*58
$GPRMC,004121,A,4839.212,N,12327.141,W,00.1,046,030322,011.8,E,D*29
$GPVTG,046,T,034,M,00.1,N,00.1,K,D*23
$GPZDA,004121,03,03,2022,08,00*44
$GPZTG,,,*72
$PMVXG,412,004122,0,0,4839.2124,N,12327.1408,W,,,17.1,046,00.1,5,004122,5,1,1,0.0,0.0
2022-03-02 16:41:22--$GPDTM,W84,,0000.0000,N,00000.0000,E,,W84*71
$GPGGA,004122,4839.2124,N,12327.1408,W,2,08,01.0,17.1,M,-18.2,M,07.0,0131*6F
$GPGLL,4839.21,N,12327.14,W,004122,A,D*50
$GPRMB,V,,,,,,,,,,,,,D*58
$GPRMC,004122,A,4839.212,N,12327.141,W,00.0,040,030322,011.8,E,D*2D
$GPVTG,040,T,028,M,00.0,N,00.1,K,D*29
$GPZDA,004122,03,03,2022,08,00*47
$GPZTG,,,*72
$PMVXG,412,004123,0,0,4839.2124,N,12327.1408,W,,,17.1,040,00.0,5,004123,5,1,1,0.0,0.0
2022-03-02 16:41:23--$GPDTM,W84,,0000.0000,N,00000.0000,E,,W84*71
$GPGGA,004123,4839.2124,N,12327.1408,W,2,08,01.0,17.1,M,-18.2,M,04.0,0131*6D
$GPGLL,4839.21,N,12327.14,W,004123,A,D*51
$GPRMB,V,,,,,,,,,,,,,D*58
$GPRMC,004123,A,4839.212,N,12327.141,W,00.0,042,030322,011.8,E,D*2E
$GPVTG,042,T,030,M,00.0,N,00.1,K,D*22
$GPZDA,004123,03,03,2022,08,00*46
$GPZTG,,,*72
$PMVXG,412,004124,0,0,4839.2124,N,12327.1408,W,,,17.1,042,00.0,5,004124,5,1,1,0.0,0.0
2022-03-02 16:41:25--$GPDTM,W84,,0000.0000,N,00000.0000,E,,W84*71
$GPGGA,004125,4839.2124,N,12327.1408,W,2,08,01.0,17.1,M,-18.2,M,06.0,0131*69
$GPGLL,4839.21,N,12327.14,W,004125,A,D*57
$GPRMB,V,,,,,,,,,,,,,D*58
$GPRMC,004125,A,4839.212,N,12327.141,W,00.2,284,030322,011.8,E,D*22
$GPVTG,284,T,272,M,00.2,N,00.4,K,D*29
$GPZDA,004125,03,03,2022,08,00*40
$GPZTG,,,*72
$PMVXG,412,004126,0,0,4839.2124,N,12327.1408,W,,,17.1,284,00.2,5,004126,5,1,1,-0.1,0.0
2022-03-02 16:41:26--$GPDTM,W84,,0000.0000,N,00000.0000,E,,W84*71
$GPGGA,004126,4839.2124,N,12327.1408,W,2,08,01.0,17.1,M,-18.2,M,07.0,0131*6B
$GPGLL,4839.21,N,12327.14,W,004126,A,D*54
$GPRMB,V,,,,,,,,,,,,,D*58
$GPRMC,004126,A,4839.212,N,12327.141,W,00.1,300,030322,011.8,E,D*2F
$GPVTG,300,T,289,M,00.1,N,00.3,K,D*24
$GPZDA,004126,03,03,2022,08,00*43
$GPZTG,,,*72
$PMVXG,412,004127,0,0,4839.2124,N,12327.1408,W,,,17.1,300,00.1,5,004127,5,1,1,-0.0,0.0
2022-03-02 16:41:27--$GPDTM,W84,,0000.0000,N,00000.0000,E,,W84*71
$GPGGA,004127,4839.2124,N,12327.1408,W,2,08,01.0,17.1,M,-18.2,M,07.0,0131*6A
$GPGLL,4839.21,N,12327.14,W,004127,A,D*55
$GPRMB,V,,,,,,,,,,,,,D*58
$GPRMC,004127,A,4839.212,N,12327.141,W,00.1,320,030322,011.8,E,D*2C
$GPVTG,320,T,309,M,00.1,N,00.2,K,D*2E
$GPZDA,004127,03,03,2022,08,00*42
$GPZTG,,,*72
$PMVXG,412,004128,0,0,4839.2124,N,12327.1408,W,,,17.1,320,00.1,5,004128,5,1,1,-0.0,0.0
2022-03-02 16:41:28--$GPDTM,W84,,0000.0000,N,00000.0000,E,,W84*71
$GPGGA,004128,4839.2124,N,12327.1408,W,2,08,01.0,17.1,M,-18.2,M,07.0,0131*65
$GPGLL,4839.21,N,12327.14,W,004128,A,D*5A
$GPRMB,V,,,,,,,,,,,,,D*58
$GPRMC,004128,A,4839.212,N,12327.141,W,00.2,351,030322,011.8,E,D*26
$GPVTG,351,T,339,M,00.2,N,00.3,K,D*29
$GPZDA,004128,03,03,2022,08,00*4D
$GPZTG,,,*72
$PMVXG,412,004129,0,0,4839.2124,N,12327.1408,W,,,17.1,351,00.2,5,004129,5,1,1,-0.0,0.1
2022-03-02 16:41:29--$GPDTM,W84,,0000.0000,N,00000.0000,E,,W84*71
$GPGGA,004129,4839.2124,N,12327.1408,W,2,08,01.0,17.1,M,-18.2,M,04.0,0131*67
$GPGLL,4839.21,N,12327.14,W,004129,A,D*5B
$GPRMB,V,,,,,,,,,,,,,D*58
$GPRMC,004129,A,4839.212,N,12327.141,W,00.2,356,030322,011.8,E,D*20
$GPVTG,356,T,344,M,00.2,N,00.4,K,D*23
$GPZDA,004129,03,03,2022,08,00*4C
$GPZTG,,,*72
$PMVXG,412,004130,0,0,4839.2124,N,12327.1408,W,,,17.1,356,00.2,5,004130,5,1,1,-0.0,0.1
2022-03-02 16:41:30--$GPDTM,W84,,0000.0000,N,00000.0000,E,,W84*71
$GPGGA,004130,4839.2124,N,12327.1408,W,2,08,01.0,17.1,M,-18.2,M,05.0,0131*6E
$GPGLL,4839.21,N,12327.14,W,004130,A,D*53
$GPRMB,V,,,,,,,,,,,,,D*58
$GPRMC,004130,A,4839.212,N,12327.141,W,00.0,040,030322,011.8,E,D*2E
$GPVTG,040,T,028,M,00.0,N,00.1,K,D*29
$GPZDA,004130,03,03,2022,08,00*44
$GPZTG,,,*72
$PMVXG,412,004131,0,0,4839.2124,N,12327.1408,W,,,17.1,040,00.0,5,004131,5,1,1,0.0,-0.0
2022-03-02 16:41:31--$GPDTM,W84,,0000.0000,N,00000.0000,E,,W84*71
$GPGGA,004131,4839.2124,N,12327.1408,W,2,08,01.0,17.1,M,-18.2,M,06.0,0131*6C
$GPGLL,4839.21,N,12327.14,W,004131,A,D*52
$GPRMB,V,,,,,,,,,,,,,D*58
$GPRMC,004131,A,4839.212,N,12327.141,W,00.1,151,030322,011.8,E,D*2F
$GPVTG,151,T,140,M,00.1,N,00.1,K,D*26
$GPZDA,004131,03,03,2022,08,00*45
$GPZTG,,,*72
$PMVXG,412,004132,0,0,4839.2124,N,12327.1408,W,,,17.1,151,00.1,5,004132,5,1,1,0.0,-0.0
2022-03-02 16:41:32--$GPDTM,W84,,0000.0000,N,00000.0000,E,,W84*71
$GPGGA,004132,4839.2124,N,12327.1408,W,2,08,01.0,17.1,M,-18.2,M,07.0,0131*6E
$GPGLL,4839.21,N,12327.14,W,004132,A,D*51
$GPRMB,V,,,,,,,,,,,,,D*58
$GPRMC,004132,A,4839.212,N,12327.141,W,00.1,183,030322,011.8,E,D*23
$GPVTG,183,T,172,M,00.1,N,00.2,K,D*2B
$GPZDA,004132,03,03,2022,08,00*46
$GPZTG,,,*72
$PMVXG,412,004133,0,0,4839.2124,N,12327.1408,W,,,17.1,183,00.1,5,004133,5,1,1,-0.0,-0.1
2022-03-02 16:41:33--$GPDTM,W84,,0000.0000,N,00000.0000,E,,W84*71
$GPGGA,004133,4839.2124,N,12327.1408,W,2,08,01.0,17.1,M,-18.2,M,07.0,0131*6F
$GPGLL,4839.21,N,12327.14,W,004133,A,D*50
$GPRMB,V,,,,,,,,,,,,,D*58
$GPRMC,004133,A,4839.212,N,12327.141,W,00.1,193,030322,011.8,E,D*23
$GPVTG,193,T,182,M,00.1,N,00.3,K,D*24
$GPZDA,004133,03,03,2022,08,00*47
$GPZTG,,,*72
$PMVXG,412,004134,0,0,4839.2124,N,12327.1408,W,,,17.1,193,00.1,5,004134,5,1,1,-0.0,-0.1
2022-03-02 16:41:34--$GPDTM,W84,,0000.0000,N,00000.0000,E,,W84*71
$GPGGA,004134,4839.2124,N,12327.1408,W,2,08,01.0,17.1,M,-18.2,M,07.0,0131*68
$GPGLL,4839.21,N,12327.14,W,004134,A,D*57
$GPRMB,V,,,,,,,,,,,,,D*58
$GPRMC,004134,A,4839.212,N,12327.141,W,00.0,298,030322,011.8,E,D*2D
$GPVTG,298,T,286,M,00.0,N,00.0,K,D*29
$GPZDA,004134,03,03,2022,08,00*40
$GPZTG,,,*72
$PMVXG,412,004135,0,0,4839.2124,N,12327.1408,W,,,17.1,298,00.0,5,004135,5,1,1,0.0,0.0
2022-03-02 16:41:35--$GPDTM,W84,,0000.0000,N,00000.0000,E,,W84*71
$GPGGA,004135,4839.2124,N,12327.1408,W,2,08,01.0,17.1,M,-18.2,M,04.0,0131*6A
$GPGLL,4839.21,N,12327.14,W,004135,A,D*56
$GPRMB,V,,,,,,,,,,,,,D*58
$GPRMC,004135,A,4839.212,N,12327.141,W,00.1,359,030322,011.8,E,D*21
$GPVTG,359,T,347,M,00.1,N,00.1,K,D*29
$GPZDA,004135,03,03,2022,08,00*41
$GPZTG,,,*72
$PMVXG,412,004136,0,0,4839.2124,N,12327.1408,W,,,17.1,359,00.1,5,004136,5,1,1,0.0,0.0
2022-03-02 16:41:36--$GPDTM,W84,,0000.0000,N,00000.0000,E,,W84*71
$GPGGA,004136,4839.2124,N,12327.1408,W,2,08,01.0,17.1,M,-18.2,M,05.0,0131*68
$GPGLL,4839.21,N,12327.14,W,004136,A,D*55
$GPRMB,V,,,,,,,,,,,,,D*58
$GPRMC,004136,A,4839.212,N,12327.141,W,00.0,342,030322,011.8,E,D*29
$GPVTG,342,T,330,M,00.0,N,00.1,K,D*22
$GPZDA,004136,03,03,2022,08,00*42
$GPZTG,,,*72
$PMVXG,412,004137,0,0,4839.2124,N,12327.1408,W,,,17.1,342,00.0,5,004137,5,1,1,-0.0,-0.0
2022-03-02 16:41:37--$GPDTM,W84,,0000.0000,N,00000.0000,E,,W84*71
$GPGGA,004137,4839.2124,N,12327.1408,W,2,08,01.0,17.1,M,-18.2,M,06.0,0131*6A
$GPGLL,4839.21,N,12327.14,W,004137,A,D*54
$GPRMB,V,,,,,,,,,,,,,D*58
$GPRMC,004137,A,4839.212,N,12327.141,W,00.0,264,030322,011.8,E,D*2D
$GPVTG,264,T,252,M,00.0,N,00.0,K,D*23
$GPZDA,004137,03,03,2022,08,00*43
$GPZTG,,,*72
$PMVXG,412,004138,0,0,4839.2124,N,12327.1408,W,,,17.1,264,00.0,5,004138,5,1,1,-0.0,-0.0
2022-03-02 16:41:38--$GPDTM,W84,,0000.0000,N,00000.0000,E,,W84*71
$GPGGA,004138,4839.2124,N,12327.1408,W,2,08,01.0,17.1,M,-18.2,M,07.0,0131*64
$GPGLL,4839.21,N,12327.14,W,004138,A,D*5B
$GPRMB,V,,,,,,,,,,,,,D*58
$GPRMC,004138,A,4839.212,N,12327.141,W,00.1,330,030322,011.8,E,D*23
$GPVTG,330,T,318,M,00.1,N,00.2,K,D*2F
$GPZDA,004138,03,03,2022,08,00*4C
$GPZTG,,,*72
$PMVXG,412,004139,0,0,4839.2124,N,12327.1408,W,,,17.1,330,00.1,5,004139,5,1,1,-0.0,0.1
