2022-03-02 16:42:59--0,0,4839.2124,N,12327.1408,W,,,17.1,301,00.1,5,004300,5,1,1,-0.1,0.0
2022-03-02 16:43:00--$GPDTM,W84,,0000.0000,N,00000.0000,E,,W84*71
$GPGGA,004300,4839.2124,N,12327.1408,W,2,08,01.0,17.1,M,-18.2,M,05.0,0131*6F
$GPGLL,4839.21,N,12327.14,W,004300,A,D*52
$GPRMB,V,,,,,,,,,,,,,D*58
$GPRMC,004300,A,4839.212,N,12327.141,W,00.2,216,030322,011.8,E,D*2C
$GPVTG,216,T,204,M,00.2,N,00.4,K,D*23
$GPZDA,004300,03,03,2022,08,00*45
$GPZTG,,,*72
$PMVXG,412,004301,0,0,4839.2124,N,12327.1408,W,,,17.1,216,00.2,5,004301,5,1,1,-0.1,-0.1
2022-03-02 16:43:01--$GPDTM,W84,,0000.0000,N,00000.0000,E,,W84*71
$GPGGA,004301,4839.2124,N,12327.1408,W,2,08,01.0,17.1,M,-18.2,M,06.0,0131*6D
$GPGLL,4839.21,N,12327.14,W,004301,A,D*53
$GPRMB,V,,,,,,,,,,,,,D*58
$GPRMC,004301,A,4839.212,N,12327.141,W,00.3,203,030322,011.8,E,D*28
$GPVTG,203,T,192,M,00.3,N,00.5,K,D*2B
$GPZDA,004301,03,03,2022,08,00*44
$GPZTG,,,*72
$PMVXG,412,004302,0,0,4839.2124,N,12327.1408,W,,,17.1,203,00.3,5,004302,5,1,1,-0.1,-0.1
2022-03-02 16:43:03--$GPDTM,W84,,0000.0000,N,00000.0000,E,,W84*71
$GPGGA,004302,4839.2124,N,12327.1408,W,2,08,01.0,17.1,M,-18.2,M,07.0,0131*6F
$GPGLL,4839.21,N,12327.14,W,004302,A,D*50
$GPRMB,V,,,,,,,,,,,,,D*58
$GPRMC,004302,A,4839.212,N,12327.141,W,00.1,164,030322,011.8,E,D*2B
$GPVTG,164,T,153,M,00.1,N,00.3,K,D*20
$GPZDA,004302,03,03,2022,08,00*47
$GPZTG,,,*72
$PMVXG,412,004303,0,0,4839.2124,N,12327.1408,W,,,17.1,164,00.1,5,004303,5,1,1,0.1,-0.0
2022-03-02 16:43:03--$GPDTM,W84,,0000.0000,N,00000.0000,E,,W84*71
$GPGGA,004303,4839.2124,N,12327.1408,W,2,08,01.0,17.1,M,-18.2,M,07.0,0131*6E
$GPGLL,4839.21,N,12327.14,W,004303,A,D*51
$GPRMB,V,,,,,,,,,,,,,D*58
$GPRMC,004303,A,4839.212,N,12327.141,W,00.1,119,030322,011.8,E,D*20
$GPVTG,119,T,107,M,00.1,N,00.2,K,D*2A
$GPZDA,004303,03,03,2022,08,00*46
$GPZTG,,,*72
$PMVXG,412,004304,0,0,4839.2124,N,12327.1408,W,,,17.1,119,00.1,5,004304,5,1,1,0.1,-0.0
2022-03-02 16:43:04--$GPDTM,W84,,0000.0000,N,00000.0000,E,,W84*71
$GPGGA,004304,4839.2124,N,12327.1408,W,2,08,01.0,17.1,M,-18.2,M,07.0,0131*69
$GPGLL,4839.21,N,12327.14,W,004304,A,D*56
$GPRMB,V,,,,,,,,,,,,,D*58
$GPRMC,004304,A,4839.212,N,12327.141,W,00.1,049,030322,011.8,E,D*23
$GPVTG,049,T,037,M,00.1,N,00.1,K,D*2F
$GPZDA,004304,03,03,2022,08,00*41
$GPZTG,,,*72
$PMVXG,412,004305,0,0,4839.2124,N,12327.1408,W,,,17.1,049,00.1,5,004305,5,1,1,0.0,0.0
2022-03-02 16:43:05--$GPDTM,W84,,0000.0000,N,00000.0000,E,,W84*71
$GPGGA,004305,4839.2124,N,12327.1408,W,2,08,01.0,17.1,M,-18.2,M,04.0,0131*6B
$GPGLL,4839.21,N,12327.14,W,004305,A,D*57
$GPRMB,V,,,,,,,,,,,,,D*58
$GPRMC,004305,A,4839.212,N,12327.141,W,00.1,010,030322,011.8,E,D*2E
$GPVTG,010,T,358,M,00.1,N,00.2,K,D*2A
$GPZDA,004305,03,03,2022,08,00*40
$GPZTG,,,*72
$PMVXG,412,004306,0,0,4839.2124,N,12327.1408,W,,,17.1,010,00.1,5,004306,5,1,1,0.0,0.0
2022-03-02 16:43:06--$GPDTM,W84,,0000.0000,N,00000.0000,E,,W84*71
$GPGGA,004306,4839.2124,N,12327.1408,W,2,08,01.0,17.1,M,-18.2,M,05.0,0131*69
$GPGLL,4839.21,N,12327.14,W,004306,A,D*54
$GPRMB,V,,,,,,,,,,,,,D*58
$GPRMC,004306,A,4839.212,N,12327.141,W,00.1,191,030322,011.8,E,D*25
$GPVTG,191,T,179,M,00.1,N,00.2,K,D*23
$GPZDA,004306,03,03,2022,08,00*43
$GPZTG,,,*72
$PMVXG,412,004307,0,0,4839.2124,N,12327.1408,W,,,17.1,191,00.1,5,004307,5,1,1,-0.0,-0.1
2022-03-02 16:43:07--$GPDTM,W84,,0000.0000,N,00000.0000,E,,W84*71
$GPGGA,004307,4839.2124,N,12327.1408,W,2,08,01.0,17.1,M,-18.2,M,06.0,0131*6B
$GPGLL,4839.21,N,12327.14,W,004307,A,D*55
$GPRMB,V,,,,,,,,,,,,,D*58
$GPRMC,004307,A,4839.212,N,12327.141,W,00.2,188,030322,011.8,E,D*2F
$GPVTG,188,T,176,M,00.2,N,00.3,K,D*26
$GPZDA,004307,03,03,2022,08,00*42
$GPZTG,,,*72
$PMVXG,412,004308,0,0,4839.2124,N,12327.1408,W,,,17.1,188,00.2,5,004308,5,1,1,-0.0,-0.1
2022-03-02 16:43:08--$GPDTM,W84,,0000.0000,N,00000.0000,E,,W84*71
$GPGGA,004308,4839.2124,N,12327.1408,W,2,08,01.0,17.1,M,-18.2,M,07.0,0131*65
$GPGLL,4839.21,N,12327.14,W,004308,A,D*5A
$GPRMB,V,,,,,,,,,,,,,D*58
$GPRMC,004308,A,4839.212,N,12327.141,W,00.1,166,030322,011.8,E,D*23
$GPVTG,166,T,154,M,00.1,N,00.2,K,D*24
$GPZDA,004308,03,03,2022,08,00*4D
$GPZTG,,,*72
$PMVXG,412,004309,0,0,4839.2124,N,12327.1408,W,,,17.1,166,00.1,5,004309,5,1,1,0.0,-0.0
2022-03-02 16:43:09--$GPDTM,W84,,0000.0000,N,00000.0000,E,,W84*71
$GPGGA,004309,4839.2124,N,12327.1408,W,2,08,01.0,17.1,M,-18.2,M,07.0,0131*64
$GPGLL,4839.21,N,12327.14,W,004309,A,D*5B
$GPRMB,V,,,,,,,,,,,,,D*58
$GPRMC,004309,A,4839.212,N,12327.141,W,00.1,139,030322,011.8,E,D*28
$GPVTG,139,T,127,M,00.1,N,00.2,K,D*2A
$GPZDA,004309,03,03,2022,08,00*4C
$GPZTG,,,*72
$PMVXG,412,004310,0,0,4839.2124,N,12327.1408,W,,,17.1,139,00.1,5,004310,5,1,1,0.0,-0.0
2022-03-02 16:43:10--$GPDTM,W84,,0000.0000,N,00000.0000,E,,W84*71
$GPGGA,004310,4839.2124,N,12327.1408,W,2,08,01.0,17.1,M,-18.2,M,07.0,0131*6C
$GPGLL,4839.21,N,12327.14,W,004310,A,D*53
$GPRMB,V,,,,,,,,,,,,,D*58
$GPRMC,004310,A,4839.212,N,12327.141,W,00.0,084,030322,011.8,E,D*26
$GPVTG,084,T,072,M,00.0,N,00.1,K,D*2E
$GPZDA,004310,03,03,2022,08,00*44
$GPZTG,,,*72
$PMVXG,412,004311,0,0,4839.2124,N,12327.1408,W,,,17.1,084,00.0,5,004311,5,1,1,0.0,0.0
2022-03-02 16:43:11--$GPDTM,W84,,0000.0000,N,00000.0000,E,,W84*71
$GPGGA,004311,4839.2124,N,12327.1408,W,2,08,01.0,17.1,M,-18.2,M,04.0,0131*6E
$GPGLL,4839.21,N,12327.14,W,004311,A,D*52
$GPRMB,V,,,,,,,,,,,,,D*58
$GPRMC,004311,A,4839.212,N,12327.141,W,00.0,047,030322,011.8,E,D*28
$GPVTG,047,T,035,M,00.0,N,00.1,K,D*22
$GPZDA,004311,03,03,2022,08,00*45
$GPZTG,,,*72
$PMVXG,412,004312,0,0,4839.2124,N,12327.1408,W,,,17.1,047,00.0,5,004312,5,1,1,0.0,0.0
2022-03-02 16:43:12--$GPDTM,W84,,0000.0000,N,00000.0000,E,,W84*71
$GPGGA,004312,4839.2124,N,12327.1408,W,2,08,01.0,17.1,M,-18.2,M,05.0,0131*6C
$GPGLL,4839.21,N,12327.14,W,004312,A,D*51
$GPRMB,V,,,,,,,,,,,,,D*58
$GPRMC,004312,A,4839.212,N,12327.141,W,00.0,042,030322,011.8,E,D*2E
$GPVTG,042,T,030,M,00.0,N,00.1,K,D*22
$GPZDA,004312,03,03,2022,08,00*46
$GPZTG,,,*72
$PMVXG,412,004313,0,0,4839.2124,N,12327.1408,W,,,17.1,042,00.0,5,004313,5,1,1,0.0,0.0
2022-03-02 16:43:13--$GPDTM,W84,,0000.0000,N,00000.0000,E,,W84*71
$GPGGA,004313,4839.2124,N,12327.1408,W,2,08,01.0,17.1,M,-18.2,M,06.0,0131*6E
$GPGLL,4839.21,N,12327.14,W,004313,A,D*50
$GPRMB,V,,,,,,,,,,,,,D*58
$GPRMC,004313,A,4839.212,N,12327.141,W,00.0,032,030322,011.8,E,D*28
$GPVTG,032,T,020,M,00.0,N,00.1,K,D*24
$GPZDA,004313,03,03,2022,08,00*47
$GPZTG,,,*72
$PMVXG,412,004314,0,0,4839.2124,N,12327.1408,W,,,17.1,032,00.0,5,004314,5,1,1,0.0,0.0
2022-03-02 16:43:14--$GPDTM,W84,,0000.0000,N,00000.0000,E,,W84*71
$GPGGA,004314,4839.2124,N,12327.1408,W,2,08,01.0,17.1,M,-18.2,M,07.0,0131*68
$GPGLL,4839.21,N,12327.14,W,004314,A,D*57
$GPRMB,V,,,,,,,,,,,,,D*58
$GPRMC,004314,A,4839.212,N,12327.141,W,00.1,049,030322,011.8,E,D*22
$GPVTG,049,T,038,M,00.1,N,00.1,K,D*20
$GPZDA,004314,03,03,2022,08,00*40
$GPZTG,,,*72
$PMVXG,412,004315,0,0,4839.2124,N,12327.1408,W,,,17.1,049,00.1,5,004315,5,1,1,0.0,0.0
2022-03-02 16:43:15--$GPDTM,W84,,0000.0000,N,00000.0000,E,,W84*71
$GPGGA,004315,4839.2124,N,12327.1408,W,2,08,01.0,17.1,M,-18.2,M,07.0,0131*69
$GPGLL,4839.21,N,12327.14,W,004315,A,D*56
$GPRMB,V,,,,,,,,,,,,,D*58
$GPRMC,004315,A,4839.212,N,12327.141,W,00.1,054,030322,011.8,E,D*2F
$GPVTG,054,T,042,M,00.1,N,00.1,K,D*21
$GPZDA,004315,03,03,2022,08,00*41
$GPZTG,,,*72
$PMVXG,412,004316,0,0,4839.2124,N,12327.1408,W,,,17.1,054,00.1,5,004316,5,1,1,0.0,0.0
